"siteID","COMID","lat","lon","huc8","HUC2","DA","CLASS","obs","name","county","FID","Precip_mmperyear","PET_mmperyear","AI"
"01010000",4289887,46.7005307305,-69.7155688704,1010001,1,3516.8067,"non-natural",9496,"St. John River at Ninemile Bridge, Maine","Aroostook",0,978.063,1057.6,1.08132093740383
"01010070",4289553,46.893836453,-69.7516625184,1010001,1,505.071,"non-natural",9496,"Big Black River near Depot Mtn, Maine","Aroostook",1,823.901,1110.03,1.34728565689324
"01010500",4288603,47.1130785621,-69.0880360689,1010001,1,7039.836,"non-natural",9496,"St. John River at Dickey, Maine","Aroostook",2,938.419,1080.22,1.15110627555495
"01011000",721640,47.0696617685,-69.0794215098,1010002,1,3197.97,"non-natural",9496,"Allagash River near Allagash, Maine","Aroostook",3,999.417,1041.78,1.04238771203612
"01013500",724696,47.2374520247,-68.5826241371,1010003,1,2259.1683,"natural",9496,"Fish River near Fort Kent, Maine","Aroostook",4,1011.46,1018.98,1.00743479722382
"01015800",805443,46.5229748787,-68.3717320525,1010004,1,2318.409,"non-natural",9496,"Aroostook River near Masardis, Maine","Aroostook",5,1044.15,1042.78,0.998687927979696
"01017000",805113,46.7772944107,-68.1572020214,1010004,1,4286.1474,"non-natural",9496,"Aroostook River at Washburn, Maine","Aroostook",6,1029.91,1033.47,1.00345661271373
"01019000",5196478,45.1725500826,-67.7688533709,1050001,1,580.1967,"non-natural",9496,"Grand Lake Stream at Grand Lake Stream, Maine","Washington",7,1182.84,1163.9,0.98398769064286
"01021000",5197200,45.1369409591,-67.3180446222,1050001,1,3550.5216,"non-natural",9496,"St. Croix River at Baring, Maine","Washington",8,1141.34,1190.95,1.04346645171465
"01022500",2677104,44.607998875,-67.9352198455,1050002,1,840.843,"natural",9496,"Narraguagus River at Cherryfield, Maine","Washington",9,1163.27,1177.9,1.01257661591892
"01030500",3923,45.5011326104,-68.3058836448,1020003,1,3673.7505,"natural",9496,"Mattawamkeag River near Mattawamkeag, Maine","Penobscot",10,1135.85,1107.43,0.974979090548928
"01031500",1722317,45.174998618,-69.314722201,1020004,1,773.964,"natural",9496,"Piscataquis River near Dover-Foxcroft, Maine","Piscataquis",11,1153.41,1116.43,0.967938547437598
"01034000",1720007,45.2605934109,-68.86859346,1020004,1,3014.8335,"non-natural",9496,"Piscataquis River at Medford, Maine","Piscataquis",12,1172.4,1123.03,0.957889798703514
"01034500",1733994,45.2361201395,-68.6513666215,1020005,1,17275.0644,"non-natural",9496,"Penobscot River at West Enfield, Maine","Penobscot",13,1127.25,1094.95,0.971346196495897
"01038000",5202858,44.2227727769,-69.5937503258,1050003,1,376.1829,"non-natural",9496,"Sheepscot River at North Whitefield, Maine","Lincoln",14,1152.44,1124.5,0.975755787719968
"01042500",1025264,45.3397567119,-69.9620203569,1030001,1,4124.6505,"non-natural",9496,"Kennebec River at The Forks, Maine","Somerset",15,1136.63,1105.71,0.972796776435603
"01046500",3319220,45.0520199796,-69.8854791704,1030003,1,7080.7446,"non-natural",9496,"Kennebec River at Bingham, Maine","Somerset",16,1163.38,1104.99,0.949810036273616
"01047000",3321976,44.869137883,-69.9550219831,1030003,1,905.0886,"natural",9496,"Carrabassett River near North Anson, Maine","Somerset",17,1220.79,1120.42,0.917782747237445
"01048000",3322258,44.7081793029,-69.9375093734,1030003,1,1338.3477,"non-natural",9496,"Sandy River near Mercer, Maine","Somerset",18,1189.88,1116.57,0.938388745083538
"01049500",3324780,44.2291276074,-69.7780233233,1030003,1,561.4632,"non-natural",9496,"Cobbosseecontee Stream at Gardiner, Maine","Kennebec",19,1151.36,1119.05,0.971937534741523
"01053500",19334535,44.7824968885,-71.1286853426,1040001,1,2706.9417,"non-natural",9496,"Androscoggin River at Errol, NH","Coos",20,1170.99,1066.81,0.911032545111401
"01054200",6716129,44.3905635697,-70.9797066948,1040002,1,181.3347,"natural",9496,"Wild River at Gilead, Maine","Oxford",21,1297.04,1109.33,0.855278171837414
"01054500",6710311,44.5519786979,-70.5441003324,1040002,1,5355.2511,"non-natural",9496,"Androscoggin River at Rumford, Maine","Oxford",22,1192.82,1082.35,0.907387535420265
"01055000",6709987,44.6428066119,-70.588851425,1040002,1,251.3115,"natural",9496,"Swift River near Roxbury, Maine","Oxford",23,1136.01,1109.27,0.976461474810961
"01057000",6711893,44.3039714845,-70.5396537622,1040002,1,198.5652,"natural",9496,"Little Androscoggin River near South Paris, Maine","Oxford",24,1175.65,1134.61,0.96509165142687
"01059000",6712623,44.0722201206,-70.2080203135,1040002,1,8479.2591,"non-natural",9496,"Androscoggin River near Auburn, Maine","Androscoggin",25,1197.77,1095.08,0.914265677049851
"01064500",9316375,43.9908102501,-71.0904812614,1060002,1,1003.4586,"non-natural",9496,"Saco River near Conway, NH","Carroll",26,1405.79,1113.64,0.792180908955107
"01073000",5845058,43.1486283755,-70.9650428927,1060003,1,32.0427,"natural",9496,"OYSTER RIVER NEAR DURHAM, NH","Strafford",27,1176.01,1248.43,1.06158110900418
"01073500",5845142,43.1027545245,-70.9526479987,1060003,1,471.8646,"non-natural",9496,"LAMPREY RIVER NEAR NEWMARKET, NH","Strafford",28,1158.69,1240.43,1.07054518464818
"01076500",6731463,43.7593104002,-71.6853283999,1070001,1,1629.504,"non-natural",9496,"PEMIGEWASSET RIVER AT PLYMOUTH, NH","Grafton",29,1284.63,1117.27,0.869721242692448
"01078000",6731199,43.5673193206,-71.7477335721,1070001,1,221.751,"natural",9496,"SMITH RIVER NEAR BRISTOL, NH","Merrimack",30,1128.42,1171.45,1.03813296467627
"01089100",6740400,43.213701674,-71.4803324716,1070002,1,213.4728,"non-natural",9496,"SOUCOOK RIVER, AT PEMBROKE ROAD, NEAR CONCORD, NH","Merrimack",31,1091.06,1201.76,1.10146096456657
"01092000",6745688,42.9491072277,-71.4627821121,1070002,1,7987.3641,"non-natural",9496,"MERRIMACK R NR GOFFS FALLS, BELOW MANCHESTER, NH","Hillsborough",32,1182.22,1173.51,0.992632504948318
"01094400",6075713,42.5762211561,-71.7879199517,1070004,1,171.7488,"non-natural",9496,"NORTH NASHUA RIVER AT FITCHBURG, MA","Worcester",33,1218.72,1250.3,1.02591243271629
"01094500",6078037,42.4953315616,-71.7218852585,1070004,1,282.7125,"non-natural",9496,"NORTH NASHUA RIVER NEAR LEOMINSTER, MA","Worcester",34,1214.95,1256.14,1.03390262973785
"01096000",6076039,42.634146982,-71.658001684,1070004,1,171.8802,"non-natural",9496,"SQUANNACOOK RIVER NEAR WEST GROTON, MA","Middlesex",35,1221.11,1256.34,1.02885079968226
"010965852",6744642,42.783259255,-71.3536985276,1070002,1,124.8192,"non-natural",9496,"BEAVER BROOK AT NORTH PELHAM, NH","Rockingham",36,1153.2,1259.91,1.09253381893861
"01097000",6772217,42.4323371734,-71.4499693489,1070005,1,301.5423,"non-natural",9496,"ASSABET RIVER AT MAYNARD, MA","Middlesex",37,1225.56,1313.13,1.07145305003427
"01098530",6772927,42.3253259641,-71.3974487782,1070005,1,274.7043,"non-natural",9496,"SUDBURY RIVER AT SAXONVILLE, MA","Middlesex",38,1199.73,1335.17,1.11289206738183
"01099500",6771379,42.6368034964,-71.3019440506,1070005,1,1035.423,"non-natural",9496,"CONCORD R BELOW R MEADOW BROOK, AT LOWELL, MA","Middlesex",39,1195.5,1321.28,1.10521120869929
"01100000",6746184,42.6464371968,-71.298104535,1070002,1,11990.9169,"non-natural",9496,"MERRIMACK RIVER BL CONCORD RIVER AT LOWELL, MA","Middlesex",40,1177.97,1202.7,1.02099374347394
"01100600",6745188,42.5681154745,-71.2151931698,1070002,1,79.8246,"non-natural",9496,"SHAWSHEEN RIVER NEAR WILMINGTON, MA","Middlesex",41,1167.7,1318.73,1.12933972766978
"01101000",5860613,42.7526273257,-70.9456405167,1090001,1,56.0376,"non-natural",9496,"PARKER RIVER AT BYFIELD, MA","Essex",42,1169.89,1190.43,1.01755720623306
"01101500",5862629,42.5696365195,-71.0269922137,1090001,1,121.0707,"non-natural",9496,"IPSWICH RIVER AT SOUTH MIDDLETON, MA","Essex",43,1164.12,1286.09,1.10477442188091
"01102000",5860401,42.6596495738,-70.8936938041,1090001,1,323.9748,"non-natural",9496,"IPSWICH RIVER NEAR IPSWICH, MA","Essex",44,1173.85,1212.95,1.03330919623461
"01102500",5867393,42.4473185374,-71.138453648,1090001,1,80.8614,"non-natural",9496,"ABERJONA RIVER AT WINCHESTER, MA","Middlesex",45,1167.28,1325.56,1.13559728599822
"01103500",5867435,42.2563190683,-71.260001957,1090001,1,476.8776,"non-natural",9496,"CHARLES RIVER AT DOVER, MA","Norfolk",46,1215.77,1347.66,1.10848268998248
"01104000",5867457,42.2547566297,-71.1644391775,1090001,1,1.4481,"non-natural",9496,"MOTHER BROOK AT DEDHAM, MA","Norfolk",47,1210.11,1349.12,1.11487385444298
"01104500",5868225,42.372550115,-71.2337486253,1090001,1,648.0387,"non-natural",9496,"CHARLES RIVER AT WALTHAM, MA","Middlesex",48,1212.94,1347.55,1.11097828416904
"01105000",5867537,42.1775674296,-71.2008906346,1090001,1,97.5888,"non-natural",9496,"NEPONSET RIVER AT NORWOOD, MA","Norfolk",49,1215.61,1350.14,1.1106687177631
"01105600",5863773,42.1901465586,-70.944915088,1090001,1,11.826,"non-natural",9496,"OLD SWAMP RIVER NEAR SOUTH WEYMOUTH, MA","Norfolk",50,1251.99,1333.98,1.06548774351233
"011058837",5878731,41.5922456183,-70.5076871879,1090002,1,28.9728,"non-natural",9496,"QUASHNET RIVER AT WAQUOIT VILLAGE, MA","Barnstable",51,1174.3,1105.48,0.941394873541684
"01109000",6129519,41.9474194682,-71.1765113333,1090004,1,113.0418,"non-natural",9496,"WADING RIVER NEAR NORTON, MA","Bristol",52,1220.1,1359.58,1.11431849848373
"01109060",6129565,41.8663052796,-71.122687455,1090004,1,220.9194,"non-natural",9496,"THREEMILE RIVER AT NORTH DIGHTON, MA","Bristol",53,1226.01,1355.72,1.10579848451481
"01109403",6128655,41.8307703852,-71.3512464241,1090004,1,141.9444,"non-natural",9496,"TEN MILE R., PAWTUCKET AVE. AT E. PROVIDENCE, RI","Providence",54,1232.2,1360,1.10371692906996
"01110000",6115740,42.2306619856,-71.7108999707,1090003,1,66.2886,"non-natural",9496,"QUINSIGAMOND RIVER AT NORTH GRAFTON, MA","Worcester",55,1241.83,1311.09,1.05577252925119
"01111500",6119204,41.9964335541,-71.562561856,1090003,1,240.8283,"non-natural",9496,"BRANCH RIVER AT FORESTDALE, RI","Providence",56,1240.19,1351.99,1.09014747740266
"01114000",167237335,41.8339886161,-71.4111544956,1090004,1,40.2642,"non-natural",9496,"MOSHASSUCK RIVER AT PROVIDENCE, RI","Providence",57,1235.51,1368.01,1.10724316274251
"01114500",6128489,41.8588755381,-71.4877166543,1090004,1,99.5301,"non-natural",9496,"WOONASQUATUCKET RIVER AT CENTERDALE, RI","Providence",58,1243.67,1363.9,1.09667355488192
"01116000",6129689,41.690120188,-71.565898591,1090004,1,164.2266,"non-natural",9496,"SOUTH BRANCH PAWTUXET RIVER AT WASHINGTON, RI","Kent",59,1267.84,1392.11,1.09801709994952
"01116500",6129655,41.7509734194,-71.4450587889,1090004,1,522.6714,"non-natural",9496,"PAWTUXET RIVER AT CRANSTON, RI","Providence",60,1253.86,1379.89,1.10051361396009
"01117000",6129703,41.6413243366,-71.4455402964,1090004,1,59.814,"non-natural",9496,"HUNT RIVER NEAR EAST GREENWICH, RI","Washington",61,1244.3,1387.62,1.11518122639235
"01117350",166174967,41.4821843239,-71.5509808508,1090005,1,28.6578,"non-natural",9496,"CHIPUXET RIVER AT WEST KINGSTON, RI","Washington",62,1233.31,1334.23,1.08182857513521
"01117420",6141056,41.4767587161,-71.6047716102,1090005,1,94.428,"non-natural",9496,"USQUEPAUG RIVER NEAR USQUEPAUG, RI","Washington",63,1245.28,1384.79,1.11203102916613
"01117468",6140842,41.49260037,-71.6280833326,1090005,1,31.9752,"natural",9496,"BEAVER RIVER NEAR USQUEPAUG, RI","Washington",64,1254.51,1386.48,1.10519645120406
"01117500",6141084,41.4450934447,-71.6809175394,1090005,1,257.7222,"non-natural",9496,"PAWCATUCK RIVER AT WOOD RIVER JUNCTION, RI","Washington",65,1205.59,1289.96,1.06998233230203
"01117800",6139996,41.5740116682,-71.7210915734,1090005,1,91.7811,"non-natural",9496,"WOOD RIVER NEAR ARCADIA, RI","Washington",66,1257.79,1404.39,1.11655363772967
"01118000",6140122,41.4981176324,-71.7162254252,1090005,1,192.6693,"non-natural",9496,"WOOD RIVER AT HOPE VALLEY, RI","Washington",67,1241.77,1383.08,1.11379724103497
"01118300",6140826,41.4748629991,-71.8342284254,1090005,1,13.7007,"natural",9496,"PENDLETON HILL BROOK NEAR CLARKS FALLS, CT","New London",68,1235.87,1379.12,1.11591024945989
"01118500",6140952,41.3837335576,-71.8335682274,1090005,1,765.9873,"non-natural",9496,"PAWCATUCK RIVER AT WESTERLY, RI","Washington",69,1214.24,1317.44,1.08499143497167
"01119500",6162965,41.7506546951,-72.2658104219,1100002,1,325.1907,"non-natural",9496,"WILLIMANTIC RIVER NEAR COVENTRY, CT","Tolland",70,1192.19,1298.3,1.08900426945369
"01121000",6162583,41.8437087462,-72.1692562322,1100002,1,94.6809,"natural",9496,"MOUNT HOPE RIVER NEAR WARRENVILLE, CT","Windham",71,1215.62,1310.65,1.07817410045903
"01122500",6163185,41.7002657997,-72.1818472406,1100002,1,1058.2407,"non-natural",9496,"SHETUCKET RIVER NEAR WILLIMANTIC, CT","Windham",72,1207.63,1315.4,1.08924090988134
"01123000",6162981,41.6718058392,-72.0523633288,1100002,1,84.195,"natural",9496,"LITTLE RIVER NEAR HANOVER, CT","Windham",73,1218.62,1352.82,1.11012456713331
"01124000",6144833,42.0224066071,-71.9556091528,1100001,1,392.517,"non-natural",9496,"QUINEBAUG RIVER AT QUINEBAUG, CT","Windham",74,1201.86,1287.23,1.07103156773667
"01127000",6149075,41.5974907668,-71.9845487345,1100001,1,1839.6378,"non-natural",9496,"QUINEBAUG RIVER AT JEWETT CITY, CT","New London",75,1217.31,1330.66,1.09311514733305
"01127500",6168318,41.5585697403,-72.1214915709,1100003,1,235.7325,"non-natural",9496,"YANTIC RIVER AT YANTIC, CT","New London",76,1235.98,1366.48,1.10558423275458
"01129200",4592169,45.0395865344,-71.4437883642,1080101,1,659.6982,"non-natural",9496,"CONNECTICUT R BELOW INDIAN STREAM NR PITTSBURG, NH","Coos",77,1139.9,1069.57,0.938301605403983
"01129500",4593223,44.7495515527,-71.6317230683,1080101,1,2064.6891,"non-natural",9496,"CONNECTICUT RIVER AT NORTH STRATFORD, NH","Coos",78,1137.87,1064.47,0.935493509803405
"01131500",4594661,44.4104475843,-71.7205788061,1080101,1,3918.6918,"non-natural",9496,"CONNECTICUT RIVER NEAR DALTON, NH","Coos",79,1155.92,1060.66,0.91758945255727
"01134500",4570675,44.5113384645,-71.8370851127,1080102,1,208.9341,"natural",9496,"MOOSE RIVER AT VICTORY, VT","Essex",80,1077.33,1031.5,0.957459645605339
"01135150",4572347,44.4760781226,-72.1245707076,1080102,1,11.1456,"non-natural",9496,"POPE BROOK (SITE W-3) NEAR NORTH DANVILLE, VT","Caledonia",81,1160.49,1065.69,0.918310368895897
"01135300",4572307,44.4352723981,-72.0385987196,1080102,1,120.4659,"non-natural",9496,"SLEEPERS RIVER (SITE W-5) NEAR ST. JOHNSBURY, VT","Caledonia",82,1094.78,1054.45,0.963161548438956
"01135500",4572379,44.3652998321,-72.0391287117,1080102,1,1125.1035,"non-natural",9496,"PASSUMPSIC RIVER AT PASSUMPSIC, VT","Caledonia",83,1108.32,1059.53,0.955978417785477
"01137500",4594599,44.2688277328,-71.6301695786,1080101,1,238.3983,"natural",9496,"AMMONOOSUC RIVER AT BETHLEHEM JUNCTION, NH","Grafton",84,1492.44,1083.14,0.725751118972957
"01138500",9326222,44.1532791085,-72.0414954968,1080101,1,6838.7382,"non-natural",9496,"CONNECTICUT RIVER AT WELLS RIVER, VT","Orange",85,1156.23,1064.73,0.920863496017228
"01139000",4573927,44.1506819453,-72.064876524,1080103,1,259.5204,"natural",9496,"WELLS RIVER AT WELLS RIVER, VT","Orange",86,1054.5,1071.45,1.01607396870555
"01139800",4573939,44.0929020094,-72.3356252948,1080103,1,24.9264,"natural",9496,"EAST ORANGE BRANCH AT EAST ORANGE, VT","Orange",87,1081.01,1082.7,1.00156335279045
"01142500",6083547,43.934491254,-72.6579183087,1080105,1,79.902,"natural",9496,"AYERS BROOK AT RANDOLPH, VT","Orange",88,1141.57,1134.3,0.993631577564232
"01144000",6084503,43.7141134101,-72.4186552936,1080105,1,1778.6943,"natural",9496,"WHITE RIVER AT WEST HARTFORD, VT","Windsor",89,1061.09,1127.56,1.06264313111989
"01144500",9327870,43.6462382595,-72.3130954263,1080104,1,10595.4768,"non-natural",9496,"CONNECTICUT RIVER AT WEST LEBANON, NH","Grafton",90,1140.34,1087.19,0.95339109388428
"01151500",6089035,43.6026181268,-72.3542275832,1080106,1,588.366,"non-natural",9496,"OTTAUQUECHEE RIVER AT NORTH HARTLAND, VT","Windsor",91,1192.67,1146.3,0.961120846504062
"01152500",9329460,43.3872567095,-72.3618452677,1080104,1,699.7185,"non-natural",9496,"SUGAR RIVER AT WEST CLAREMONT, NH","Sullivan",92,1096.63,1165.53,1.06282884838095
"01153550",10102348,43.1914227661,-72.4851880379,1080107,1,290.0277,"non-natural",9496,"WILLIAMS RIVER NEAR ROCKINGHAM VT","Windham",93,1218.61,1152.68,0.945897374877935
"01154500",9331546,43.1254680044,-72.4375964653,1080104,1,14018.0562,"non-natural",9496,"CONNECTICUT RIVER AT NORTH WALPOLE, NH","Cheshire",94,1142.1,1101.32,0.964293844672095
"01161000",6778371,42.7860776527,-72.4862272606,1080201,1,1093.0293,"non-natural",9496,"ASHUELOT RIVER AT HINSDALE, NH","Cheshire",95,1132.73,1179.01,1.04085704448545
"01162000",9343737,42.6843710419,-72.0834031832,1080202,1,219.3282,"non-natural",9496,"MILLERS RIVER NEAR WINCHENDON, MA","Worcester",96,1189.34,1216.79,1.02308002757832
"01162500",9343363,42.6826528354,-72.1149505623,1080202,1,125.4069,"natural",9496,"PRIEST BROOK NEAR WINCHENDON, MA","Worcester",97,1155.06,1200.09,1.03898498779284
"01166500",9343517,42.5976285231,-72.4379658328,1080202,1,964.7838,"non-natural",9496,"MILLERS RIVER AT ERVING, MA","Franklin",98,1184.62,1215.73,1.02626158599382
"01168500",10294852,42.6254403671,-72.8543598704,1080203,1,939.4956,"non-natural",9496,"DEERFIELD RIVER AT CHARLEMONT, MA","Franklin",99,1372.68,1183.29,0.862029023516041
"01169000",10294784,42.6382404843,-72.7248428042,1080203,1,233.3178,"natural",9496,"NORTH RIVER AT SHATTUCKVILLE, MA","Franklin",100,1302.84,1197.68,0.919284025667005
"01169900",10295340,42.5420696181,-72.6937314102,1080203,1,68.0868,"non-natural",9496,"SOUTH RIVER NEAR CONWAY, MA","Franklin",101,1218.48,1206.23,0.989946490709737
"01170000",10295286,42.5360222533,-72.653231145,1080203,1,1462.0158,"non-natural",9496,"DEERFIELD RIVER NEAR WEST DEERFIELD, MA","Franklin",102,1340.28,1188.09,0.88644910018802
"01170100",10294622,42.7034088584,-72.6706652609,1080203,1,109.1817,"natural",9496,"GREEN RIVER NEAR COLRAIN, MA","Franklin",103,1301.76,1183.04,0.908800393313668
"01170500",6778961,42.5792656415,-72.5743728298,1080201,1,20372.8374,"non-natural",9496,"CONNECTICUT RIVER AT MONTAGUE CITY, MA","Franklin",104,1181.54,1126.73,0.953611388526838
"01171500",6781041,42.3190211638,-72.6650573973,1080201,1,136.9908,"non-natural",9496,"MILL RIVER AT NORTHAMPTON, MA","Hampshire",105,1211.88,1220.23,1.00689012113411
"01172500",7691387,42.4258340675,-72.025168732,1080204,1,144.7938,"non-natural",9496,"WARE RIVER NEAR BARRE, MA","Worcester",106,1204.42,1257.77,1.04429517942246
"01173000",7691403,42.3905352432,-72.0603684146,1080204,1,252.4509,"non-natural",9496,"WARE RIVER AT INTAKE WORKS NEAR BARRE, MA","Worcester",107,1182.01,1244.68,1.05301985600799
"01173500",7690465,42.2361285215,-72.2725684529,1080204,1,513.1206,"non-natural",9496,"WARE RIVER AT GIBBS CROSSING, MA","Hampshire",108,1183.31,1249.62,1.05603772468753
"01174500",7691881,42.3930965002,-72.2390962868,1080204,1,113.0796,"non-natural",9496,"EAST BRANCH SWIFT RIVER NEAR HARDWICK, MA","Worcester",109,1169.43,1223.07,1.04586850003848
"01175500",7691607,42.2679426314,-72.3326988265,1080204,1,500.85,"non-natural",9496,"SWIFT RIVER AT WEST WARE, MA","Hampshire",110,1176.11,1222.14,1.03913749564241
"01175670",7690413,42.2648312549,-72.0052828259,1080204,1,24.363,"non-natural",9496,"SEVENMILE RIVER NEAR SPENCER, MA","Worcester",111,1188.26,1267.65,1.06681197717671
"01176000",7690649,42.1824120658,-72.2634447151,1080204,1,388.1268,"non-natural",9496,"QUABOAG RIVER AT WEST BRIMFIELD, MA","Hampden",112,1187.53,1260.5,1.06144686871069
"01177000",7692453,42.1607654118,-72.5139633128,1080204,1,1787.1858,"non-natural",9496,"CHICOPEE RIVER AT INDIAN ORCHARD, MA","Hampden",113,1188.5,1258.37,1.05878838872528
"01181000",6096297,42.2370465398,-72.8958510045,1080206,1,245.5875,"natural",9496,"WEST BRANCH WESTFIELD RIVER AT HUNTINGTON, MA","Hampshire",114,1301.86,1234.59,0.948327777180342
"01184000",7700898,41.9873163651,-72.6034625929,1080205,1,25008.6483,"non-natural",9496,"CONNECTICUT RIVER AT THOMPSONVILLE, CT","Hartford",115,1180.58,1146.21,0.970887191041691
"01184100",7699976,41.9607755072,-72.7104989595,1080205,1,27.945,"non-natural",9496,"STONY BROOK NEAR WEST SUFFIELD, CT","Hartford",116,1234.79,1276.41,1.03370613626609
"01184490",7700014,41.9138909646,-72.5496040448,1080205,1,40.8528,"non-natural",9496,"BROAD BROOK AT BROAD BROOK, CT","Hartford",117,1166.49,1290.46,1.10627609323698
"01185500",6107147,42.0786248457,-73.0731123912,1080207,1,246.3444,"non-natural",9496,"WEST BRANCH FARMINGTON RIVER NEAR NEW BOSTON, MA","Berkshire",118,1289.89,1250.97,0.969826884463016
"01186000",6111421,41.9628714815,-73.0175330574,1080207,1,333.7551,"non-natural",9496,"WEST BRANCH FARMINGTON RIVER AT RIVERTON, CT","Litchfield",119,1299.24,1257.39,0.967788861180382
"01187300",6105951,42.0371795626,-72.9396756404,1080207,1,54.0963,"natural",9496,"HUBBARD RIVER NEAR WEST HARTLAND, CT","Hartford",120,1324.26,1261.73,0.952781175902013
"01188000",6109247,41.7861126595,-72.9647899427,1080207,1,10.5084,"non-natural",9496,"BUNNELL BROOK NEAR BURLINGTON, CT","Hartford",121,1298.16,1311.59,1.01034541196771
"01188090",6109643,41.7559647989,-72.8870119898,1080207,1,978.5736,"non-natural",9496,"FARMINGTON RIVER AT UNIONVILLE, CT","Hartford",122,1305.3,1276.72,0.978104650271968
"01189995",6109717,41.9082322347,-72.7593965678,1080207,1,1492.9416,"non-natural",9496,"FARMINGTON RIVER AT TARIFFVILLE, CT","Hartford",123,1284.98,1283.25,0.998653675543588
"01192500",7700148,41.7831698319,-72.5873104262,1080205,1,191.8764,"non-natural",9496,"HOCKANUM RIVER NEAR EAST HARTFORD, CT","Hartford",124,1202.83,1296.95,1.07824879658805
"01192883",7700532,41.5202175356,-72.7061757941,1080205,1,80.6472,"non-natural",9496,"COGINCHAUG RIVER AT MIDDLEFIELD, CT","Middlesex",125,1231.87,1264.45,1.02644759593139
"01193500",7700458,41.552589618,-72.4494836826,1080205,1,263.2599,"non-natural",9496,"SALMON RIVER NEAR EAST HAMPTON, CT","Middlesex",126,1233.74,1335.34,1.0823512247313
"01195100",6177558,41.305793844,-72.53132659,1100004,1,15.8652,"natural",9496,"INDIAN RIVER NEAR CLINTON, CT","Middlesex",127,1241.63,1235.94,0.995417314336799
"01195490",6174422,41.6034054984,-72.8831265553,1100004,1,51.8616,"non-natural",9496,"QUINNIPIAC RIVER AT SOUTHINGTON, CT","Hartford",128,1274.54,1314.21,1.03112495488568
"01196500",6177816,41.4503660572,-72.8406702491,1100004,1,285.3486,"non-natural",9496,"QUINNIPIAC RIVER AT WALLINGFORD, CT","New Haven",129,1259.13,1318.93,1.04749311032221
"01196620",6177114,41.4204286922,-72.9029391161,1100004,1,66.9123,"non-natural",9496,"MILL RIVER NEAR HAMDEN, CT","New Haven",130,1223.71,1322.47,1.08070539588628
"01197000",7709630,42.4693172418,-73.1972937574,1100005,1,149.8707,"non-natural",9496,"EAST BRANCH HOUSATONIC RIVER AT COLTSVILLE, MA","Berkshire",131,1323.1,1219.52,0.921714156148439
"01197500",7710210,42.2319530294,-73.3546261355,1100005,1,726.4152,"non-natural",9496,"HOUSATONIC RIVER NEAR GREAT BARRINGTON, MA","Berkshire",132,1213.01,1209.2,0.996859053099315
"01199000",7711932,41.9572574733,-73.3699363548,1100005,1,1634.2281,"non-natural",9496,"HOUSATONIC RIVER AT FALLS VILLAGE, CT","Litchfield",133,1207.27,1225.9,1.01543151076396
"01199050",7711950,41.9422937571,-73.3910868971,1100005,1,77.1066,"non-natural",9496,"SALMON CREEK AT LIME ROCK, CT","Litchfield",134,1178.83,1260.52,1.06929752381599
"01200500",7713698,41.653038602,-73.4900621964,1100005,1,2571.1794,"non-natural",9496,"HOUSATONIC RIVER AT GAYLORDSVILLE, CT","Litchfield",135,1225.43,1249.68,1.01978897203431
"01204000",7716608,41.4819381789,-73.2245713705,1100005,1,195.6501,"non-natural",9496,"POMPERAUG RIVER AT SOUTHBURY, CT","New Haven",136,1249.05,1335.18,1.06895640686922
"01205500",7718288,41.3835027784,-73.1666282512,1100005,1,3992.0013,"non-natural",9496,"HOUSATONIC RIVER AT STEVENSON, CT","New Haven",137,1238.79,1274.31,1.02867314072603
"01206900",7712706,41.67370791,-73.0695628242,1100005,1,261.5868,"non-natural",9496,"NAUGATUCK RIVER AT THOMASTON, CT","Litchfield",138,1279.52,1309.23,1.02321964486683
"01208500",7718060,41.4419535494,-73.0627700284,1100005,1,674.0073,"non-natural",9496,"NAUGATUCK RIVER AT BEACON FALLS, CT","New Haven",139,1280.44,1317.95,1.02929461747524
"01208950",7733309,41.1528972957,-73.3059321394,1100006,1,21.15,"non-natural",9496,"SASCO BROOK NEAR SOUTHPORT, CT","Fairfield",140,1173.36,1422.36,1.21221108611168
"01208990",7731665,41.2945566378,-73.3951176674,1100006,1,53.649,"natural",9496,"SAUGATUCK RIVER NEAR REDDING, CT","Fairfield",141,1288.49,1353.49,1.05044664685019
"01209700",7732387,41.163772496,-73.419451951,1100006,1,78.0633,"non-natural",9496,"NORWALK RIVER AT SOUTH WILTON, CT","Fairfield",142,1249.77,1388.18,1.1107483777015
"01303500",9509194,40.8571442142,-73.4634671555,2030201,2,20.4282,"non-natural",9496,"COLD SPRING BROOK AT COLD SPRING HARBOR NY","Nassau",143,1186.08,1450.7,1.22310468096587
"01304000",9509670,40.8495308139,-73.2242226988,2030201,2,72.4599,"non-natural",9496,"NISSEQUOGUE RIVER NEAR SMITHTOWN NY","Suffolk",144,1181.6,1335.55,1.1302894380501
"01304500",9496622,40.9138818264,-72.6866570142,2030202,2,214.2693,"non-natural",9496,"PECONIC RIVER AT RIVERHEAD NY","Suffolk",145,1168.91,927.971,0.793877201837609
"01305000",9496458,40.8300743545,-72.9063199262,2030202,2,191.7792,"non-natural",9496,"CARMANS RIVER AT YAPHANK NY","Suffolk",146,1168.85,1128.81,0.965744107456047
"01305500",9496468,40.7669504884,-72.9938417114,2030202,2,21.1671,"non-natural",9496,"SWAN RIVER AT EAST PATCHOGUE NY","Suffolk",147,1185.5,1058.49,0.892863770560945
"01306460",9499614,40.7718694897,-73.158668039,2030202,2,61.2198,"non-natural",9496,"CONNETQUOT BK NR CENTRAL ISLIP NY","Suffolk",148,1177.13,1273.43,1.08180914597368
"01306500",9499636,40.7475211213,-73.1506430892,2030202,2,73.6371,"non-natural",9496,"CONNETQUOT RIVER NEAR OAKDALE NY","Suffolk",149,1177.13,1273.43,1.08180914597368
"01308000",9499680,40.7042069092,-73.3138183112,2030202,2,58.5243,"non-natural",9496,"SAMPAWAMS CREEK AT BABYLON NY","Suffolk",150,1178.69,1333.1,1.13100136592319
"01308500",9499682,40.7085569367,-73.3288955971,2030202,2,98.6517,"non-natural",9496,"CARLLS RIVER AT BABYLON NY","Suffolk",151,1175.46,1371.3,1.16660711551222
"01311500",9499706,40.6637944415,-73.7045580437,2030202,2,20.8818,"non-natural",9496,"VALLEY STREAM AT VALLEY STREAM NY","Nassau",152,1129.08,1354.7,1.19982640734049
"01315000",22306657,43.7565127491,-74.2668502593,2020001,2,340.3863,"non-natural",9496,"INDIAN RIVER NEAR INDIAN LAKE NY","Hamilton",153,1306.51,1102.32,0.843713404413284
"01315500",22304861,43.7004528066,-73.9834246871,2020001,2,2052.5751,"non-natural",9496,"HUDSON RIVER AT NORTH CREEK NY","Warren",154,1215.43,1109.06,0.91248364776252
"01318500",22307223,43.3193728592,-73.8437841567,2020001,2,4304.5074,"non-natural",9496,"HUDSON RIVER AT HADLEY NY","Saratoga",155,1186.41,1110.73,0.936210922025269
"01321000",22297114,43.3531107046,-74.2702887415,2020002,2,1265.175,"non-natural",9496,"SACANDAGA RIVER NEAR HOPE NY","Hamilton",156,1302.64,1125.45,0.863976232880919
"01325000",22294854,43.3108717762,-73.8666738214,2020002,2,2736.0054,"non-natural",9496,"SACANDAGA RIVER AT STEWARTS BRIDGE NR HADLEY NY","Saratoga",157,1266.69,1133.99,0.895238771917359
"01327750",932020139,43.268309834,-73.5960305075,2020003,2,7290.8226,"non-natural",9496,"HUDSON RIVER AT FORT EDWARD NY","Washington",158,1196.29,1119.98,0.936211119377409
"01330000",22288127,43.0307476211,-73.9272347278,2020003,2,67.932,"non-natural",9496,"GLOWEGEE CREEK AT WEST MILTON NY","Saratoga",159,1121.74,1142.34,1.01836432684936
"01331500",22290241,42.6112483075,-73.1240565238,2020003,2,121.9023,"non-natural",9496,"HOOSIC RIVER AT ADAMS, MA","Berkshire",160,1213.92,1201.1,0.989439172268354
"01333000",22290373,42.7090338591,-73.1967792566,2020003,2,111.4938,"natural",9496,"GREEN RIVER AT WILLIAMSTOWN, MA","Berkshire",161,1227.83,1193.25,0.971836492022511
"01334000",22289963,42.913107597,-73.2564009932,2020003,2,309.5658,"non-natural",9496,"WALLOOMSAC RIVER NEAR NORTH BENNINGTON, VT","Bennington",162,1200.31,1155.34,0.962534678541377
"01334500",22290307,42.9383482191,-73.3774888751,2020003,2,1326.6297,"non-natural",9496,"HOOSIC RIVER NEAR EAGLE BRIDGE NY","Rensselaer",163,1226.86,1178.64,0.960696411978547
"01335754",22290555,42.8300576678,-73.6642160866,2020003,2,11924.9433,"non-natural",9496,"HUDSON RIVER ABOVE LOCK 1 NEAR WATERFORD NY","Saratoga",164,1183.68,1133.65,0.957733509056502
"01336000",22743619,43.2644449349,-75.4359258119,2020004,2,404.1567,"non-natural",9496,"MOHAWK RIVER BELOW DELTA DAM NEAR ROME NY","Oneida",165,1326.33,1085.14,0.818152345193127
"01346000",22741581,43.069017162,-74.9881863332,2020004,2,1439.4402,"non-natural",9496,"WEST CANADA CREEK AT KAST BRIDGE NY","Herkimer",166,1361.13,1089.96,0.800775825968129
"01347000",22741627,43.0144960294,-74.779481671,2020004,2,3403.161,"non-natural",9496,"MOHAWK RIVER NEAR LITTLE FALLS NY","Herkimer",167,1260.69,1099.7,0.872300089633455
"01350000",3247466,42.3194420784,-74.4367398217,2020005,2,616.0662,"natural",9496,"SCHOHARIE CREEK AT PRATTSVILLE NY","Greene",168,1191.93,1203.92,1.01005931556383
"01350080",3247464,42.3765276427,-74.4130996021,2020005,2,89.4267,"natural",9496,"MANOR KILL AT WEST CONESVILLE NEAR GILBOA NY","Schoharie",169,1066.68,1201.07,1.12598905013687
"01350120",3247452,42.4059188792,-74.4472775935,2020005,2,30.5856,"non-natural",9496,"PLATTER KILL AT GILBOA NY","Schoharie",170,1051.62,1193.75,1.13515338240049
"01350140",3247552,42.4289944505,-74.4730713301,2020005,2,46.2249,"natural",9496,"MINE KILL NEAR NORTH BLENHEIM NY","Schoharie",171,1031.07,1176.48,1.14102825220402
"01350355",3246744,42.5367176415,-74.4104069299,2020005,2,1152.4788,"non-natural",9496,"SCHOHARIE CREEK AT BREAKABEEN NY","Schoharie",172,1175.92,1192.85,1.01439723790734
"01351500",3247040,42.8004324949,-74.2628531271,2020005,2,2293.9344,"non-natural",9496,"SCHOHARIE CREEK AT BURTONSVILLE NY","Schenectady",173,1130.14,1182.03,1.04591466543968
"01357500",22751957,42.7860586747,-73.7070229337,2020004,2,8986.0338,"non-natural",9496,"MOHAWK RIVER AT COHOES NY","Albany",174,1196.01,1133.08,0.947383383082081
"01360640",6186112,42.5520896617,-73.5915170201,2020006,2,30.8772,"non-natural",9496,"VALATIE KILL NEAR NASSAU NY","Rensselaer",175,1077.85,1177.77,1.09270306628937
"01362200",6189624,42.1171104915,-74.3803253319,2020006,2,165.0942,"natural",9496,"ESOPUS CREEK AT ALLABEN NY","Ulster",176,1341.8,1218.61,0.908190490386049
"01362500",6189754,42.0141617976,-74.2707646053,2020006,2,495.8964,"non-natural",9496,"ESOPUS CREEK AT COLDBROOK NY","Ulster",177,1343.29,1222.3,0.909930097000648
"01364500",6193936,42.0377627718,-73.9719094494,2020006,2,1098.963,"non-natural",9496,"ESOPUS CREEK AT MOUNT MARION NY","Ulster",178,1302.1,1221.25,0.937907994777667
"01365000",6200212,41.8659652837,-74.4868012458,2020007,2,102.6981,"natural",9496,"RONDOUT CREEK NEAR LOWES CORNERS NY","Sullivan",179,1346.77,1236.48,0.918107768958323
"01367500",6206824,41.842820761,-74.0860849756,2020007,2,1000.0152,"non-natural",9496,"RONDOUT CREEK AT ROSENDALE NY","Ulster",180,1249.83,1270.03,1.01616219805894
"01371500",6200432,41.6864046928,-74.1649285614,2020007,2,1854.6642,"non-natural",9496,"WALLKILL RIVER AT GARDINER NY","Ulster",181,1203.22,1347.04,1.1195292631439
"01372500",6212050,41.6528395954,-73.8726215002,2020008,2,480.708,"non-natural",9496,"WAPPINGER CREEK NEAR WAPPINGERS FALLS NY","Dutchess",182,1150.87,1257.22,1.09240835194244
"01375000",6227896,41.2253905989,-73.8591840755,2030101,2,978.5115,"non-natural",9496,"CROTON R AT NEW CROTON DAM NR CROTON-ON-HUDSON NY","Westchester",183,1257.36,1370.67,1.09011738881466
"01376800",6244334,41.0955726006,-73.9638852208,2030103,2,81.1215,"non-natural",9496,"HACKENSACK RIVER AT WEST NYACK NY","Rockland",184,1251.54,1428.05,1.14103424580916
"01377000",6248392,40.9994016252,-73.9890257055,2030103,2,149.9877,"non-natural",9496,"Hackensack River at Rivervale NJ","Bergen",185,1245.02,1442.67,1.15875246983984
"01377500",6249408,40.9929614417,-74.0210838583,2030103,2,75.2904,"non-natural",9496,"Pascack Brook at Westwood NJ","Bergen",186,1245.73,1449.16,1.16330183908231
"01378500",6249556,40.9484330721,-74.0266932164,2030103,2,292.0266,"non-natural",9496,"Hackensack River at New Milford NJ","Bergen",187,1225.5,1463.26,1.19401060791514
"01379000",6250860,40.6799731394,-74.528607425,2030103,2,142.1856,"non-natural",9496,"Passaic River near Millington NJ","Somerset",188,1247.47,1429.9,1.14623998973923
"01379500",6250836,40.7261512588,-74.389731608,2030103,2,262.1889,"non-natural",9496,"Passaic River near Chatham NJ","Morris",189,1238.56,1418.85,1.14556420359127
"01379530",6250812,40.744828791,-74.3535660601,2030103,2,30.9384,"non-natural",9496,"Canoe Brook near Summit NJ","Essex",190,1233.85,1459.62,1.18298010292985
"01379773",6249510,40.959486388,-74.5395002412,2030103,2,19.8441,"non-natural",9496,"Green Pond Brook at Picatinny Arsenal NJ","Morris",191,1277.23,1381.7,1.08179419525066
"01379780",6249604,40.9492594698,-74.557155528,2030103,2,24.9912,"non-natural",9496,"Green Pond Bk blw Picatinny Lk at Picatinny Ars NJ","Morris",192,1277.23,1381.7,1.08179419525066
"01380450",6250646,40.9077791911,-74.4190156184,2030103,2,304.2765,"non-natural",9496,"Rockaway River at Main Street at Boonton NJ","Morris",193,1264.1,1389.85,1.09947788940748
"01381000",6249860,40.8969445438,-74.3947222648,2030103,2,316.7811,"non-natural",9496,"Rockaway River below Reservoir at Boonton NJ","Morris",194,1264.1,1389.85,1.09947788940748
"01381500",6250748,40.8075744158,-74.4565627587,2030103,2,77.4153,"non-natural",9496,"Whippany River at Morristown NJ","Morris",195,1256.33,1397.95,1.11272515979082
"01382500",6246362,41.0185128903,-74.4009698174,2030103,2,166.3758,"non-natural",9496,"Pequannock River at Macopin Intake Dam NJ","Passaic",196,1266.79,1390.81,1.0979009938506
"01383500",6246368,41.1605251253,-74.3332054028,2030103,2,73.1898,"non-natural",9496,"Wanaque River at Awosting NJ","Passaic",197,1261.21,1388.1,1.1006097319241
"01384500",6245518,41.1265265489,-74.2662978647,2030103,2,46.6857,"non-natural",9496,"Ringwood Creek near Wanaque NJ","Passaic",198,1254.35,1397.7,1.11428229760434
"01387000",932030153,41.0442161624,-74.2930359352,2030103,2,240.9894,"non-natural",9496,"Wanaque River at Wanaque NJ","Passaic",199,1261.21,1388.1,1.1006097319241
"01387400",6245458,41.1404046706,-74.1685981828,2030103,2,225.2457,"non-natural",9496,"RAMAPO RIVER AT RAMAPO NY","Rockland",200,1249.28,1394.52,1.11625896516393
"01387420",6245602,41.1183307419,-74.1603905666,2030103,2,243.1854,"non-natural",9496,"RAMAPO RIVER AT SUFFERN NY","Rockland",201,1249.28,1394.52,1.11625896516393
"01387500",6246322,41.0984007439,-74.1629728128,2030103,2,312.6114,"non-natural",9496,"Ramapo River near Mahwah NJ","Bergen",202,1230.84,1390.96,1.13009001982386
"01388000",6250614,40.9918742135,-74.2799867619,2030103,2,415.683,"non-natural",9496,"Ramapo River at Pompton Lakes NJ","Passaic",203,1252.71,1402.96,1.11993997014473
"01388500",6249470,40.9696916838,-74.2820216357,2030103,2,922.617,"non-natural",9496,"Pompton River at Pompton Plains NJ","Passaic",204,1253.95,1397.6,1.11455799673033
"01390500",6250616,40.9851096235,-74.0906403279,2030103,2,55.2537,"non-natural",9496,"Saddle River at Ridgewood NJ","Bergen",205,1264.12,1439.66,1.13886339904439
"01391500",6250666,40.890311501,-74.0805918041,2030103,2,157.8978,"non-natural",9496,"Saddle River at Lodi NJ","Bergen",206,1255.5,1460.34,1.1631541218638
"01393450",6261532,40.6749345432,-74.2220088579,2030104,2,51.1128,"non-natural",9496,"Elizabeth River at Ursino Lake at Elizabeth NJ","Union",207,1234.65,1478.21,1.19727048151298
"01394500",6261526,40.6874981126,-74.3117746682,2030104,2,67.5,"non-natural",9496,"Rahway River near Springfield NJ","Union",208,1230.07,1465.41,1.1913224450641
"01395000",6261548,40.6191662758,-74.2833722033,2030104,2,108.9576,"non-natural",9496,"Rahway River at Rahway NJ","Union",209,1218.29,1452.48,1.19222845135395
"01396582",9513784,40.6914220708,-74.9369367133,2030105,2,34.3386,"non-natural",9496,"Spruce Run at Main Street at Glen Gardner NJ","Hunterdon",210,1262.82,1383.99,1.09595191713783
"01396660",9512952,40.6473657974,-74.968873822,2030105,2,30.5145,"non-natural",9496,"Mulhockaway Creek at Van Syckel NJ","Hunterdon",211,1249.39,1402.84,1.12281993612883
"01396800",9513994,40.6398838868,-74.9150571898,2030105,2,107.4042,"non-natural",9496,"Spruce Run at Clinton NJ","Hunterdon",212,1262.79,1394.14,1.10401571124257
"01397000",9513836,40.5723750128,-74.8675128293,2030105,2,388.8261,"non-natural",9496,"South Branch Raritan River at Stanton NJ","Hunterdon",213,1268.33,1387.67,1.09409223151703
"01398500",9513956,40.708510551,-74.6364635139,2030105,2,68.8221,"non-natural",9496,"North Branch Raritan River near Far Hills NJ","Somerset",214,1275.68,1388.43,1.08838423429073
"01399670",9513068,40.619705648,-74.7734414889,2030105,2,32.1876,"non-natural",9496,"South B Rockaway Creek at Whitehouse Station NJ","Hunterdon",215,1248.03,1403.05,1.12421175773018
"01400000",9513840,40.5706596887,-74.6788803239,2030105,2,490.0473,"non-natural",9496,"North Branch Raritan River near Raritan NJ","Somerset",216,1267.56,1392.46,1.09853576950992
"01400500",9513852,40.5554205186,-74.5828438844,2030105,2,1274.0643,"non-natural",9496,"Raritan River at Manville NJ","Somerset",217,1240.41,1408.74,1.13570512975548
"01401000",9515592,40.333045813,-74.6819900091,2030105,2,122.6727,"non-natural",9496,"Stony Brook at Princeton NJ","Mercer",218,1203.27,1437.86,1.19496039957782
"01401650",9514754,40.467969651,-74.6487768145,2030105,2,14.7132,"non-natural",9496,"Pike Run at Belle Mead NJ","Somerset",219,1189.32,1425.69,1.19874381999798
"01402000",9514706,40.4749082494,-74.5759307021,2030105,2,664.2432,"non-natural",9496,"Millstone River at Blackwells Mills NJ","Somerset",220,1192.15,1447.22,1.21395797508703
"01403060",9513378,40.5516068697,-74.5485519667,2030105,2,2022.1434,"non-natural",9496,"Raritan River below Calco Dam at Bound Brook NJ","Somerset",221,1186.93,1438.18,1.21168055403436
"01403150",9513122,40.6123987829,-74.5907019978,2030105,2,5.9202,"non-natural",9496,"West Branch Middle Brook near Martinsville NJ","Somerset",222,1218.5,1411.25,1.15818629462454
"01403400",9512912,40.6665652528,-74.4030681297,2030105,2,16.8858,"non-natural",9496,"Green Brook at Seeley Mills NJ","Somerset",223,1210.65,1452.45,1.199727419155
"01403540",9513054,40.6366983451,-74.4511842773,2030105,2,15.3981,"non-natural",9496,"Stony Brook at Watchung NJ","Somerset",224,1204.55,1429.34,1.18661740899091
"01407500",6263354,40.3188898041,-74.1151473954,2030104,2,127.0935,"non-natural",9496,"Swimming River near Red Bank NJ","Monmouth",225,1173.79,1387.88,1.18239208035509
"01407705",6262928,40.1985897179,-74.0700140726,2030104,2,26.6247,"non-natural",9496,"Shark River near Neptune City NJ","Monmouth",226,1173.26,1379.49,1.17577519049486
"01407760",6262926,40.2033587309,-74.0658320931,2030104,2,17.3898,"non-natural",9496,"Jumping Brook near Neptune City NJ","Monmouth",227,1173.26,1379.49,1.17577519049486
"01408000",9442083,40.1612531392,-74.1548094942,2040301,2,113.5611,"non-natural",9496,"Manasquan River at Squankum NJ","Monmouth",228,1173.71,1460.29,1.24416593536734
"01408029",9441199,40.146204929,-74.1223577133,2040301,2,164.2023,"non-natural",9496,"Manasquan River near Allenwood NJ","Monmouth",229,1171.88,1503.81,1.28324572481824
"01408120",9442143,40.0917016988,-74.1524319007,2040301,2,92.2482,"non-natural",9496,"North Branch Metedeconk River near Lakewood NJ","Ocean",230,1174.08,1498.04,1.2759266830199
"01408500",9453743,39.9865879237,-74.2232144757,2040301,2,330.8598,"non-natural",9496,"Toms River near Toms River NJ","Ocean",231,1176.42,1541.04,1.30994032743408
"01409400",9447943,39.6744699327,-74.6649269673,2040301,2,164.7189,"non-natural",9496,"Mullica River near Batsto NJ","Atlantic",232,1154.58,1574.75,1.36391588283185
"01410000",9454525,39.6632660713,-74.5234876986,2040301,2,187.1937,"non-natural",9496,"Oswego River at Harrisville NJ","Burlington",233,1159.17,1578.68,1.3619055013501
"01410150",9454631,39.6227949498,-74.4409648742,2040301,2,22.7529,"non-natural",9496,"East Branch Bass River near New Gretna NJ","Burlington",234,1124.19,1438.72,1.27978366646207
"01411000",9434145,39.594497384,-74.8518146179,2040302,2,151.7409,"non-natural",9496,"Great Egg Harbor River at Folsom NJ","Atlantic",235,1145.9,1554.98,1.35699450213806
"01411300",9436435,39.3066630212,-74.8204521892,2040302,2,79.5771,"natural",9496,"Tuckahoe River at Head of River NJ","Cape May",236,1105.38,1394.05,1.26115001176066
"01411500",9485398,39.4959058054,-75.0762377939,2040206,2,292.7097,"non-natural",9496,"Maurice River at Norma NJ","Salem",237,1122.57,1523.63,1.35726947985426
"01413500",1748583,42.1441010099,-74.6532930651,2040102,2,434.8881,"natural",9496,"EAST BRANCH DELAWARE RIVER AT MARGARETVILLE NY","Delaware",238,1137.25,1192.01,1.04815124203122
"01414500",1748611,42.1068691203,-74.7299367851,2040102,2,66.7557,"natural",9496,"MILL BROOK NEAR DUNRAVEN NY","Delaware",239,1109.96,1187.05,1.06945295325958
"01417000",1748727,42.0746580768,-74.9762975384,2040102,2,967.1184,"non-natural",9496,"EAST BRANCH DELAWARE RIVER AT DOWNSVILLE NY","Delaware",240,1129.87,1186.55,1.05016506323736
"01417500",1749281,42.0243006205,-75.1195167247,2040102,2,1186.11,"non-natural",9496,"EAST BRANCH DELAWARE RIVER AT HARVARD NY","Delaware",241,1154.35,1194.96,1.03517997141248
"01420500",1750585,41.9465998769,-74.9796742901,2040102,2,630.7731,"non-natural",9496,"BEAVER KILL AT COOKS FALLS NY","Delaware",242,1194.8,1227.19,1.02710913960495
"01421000",1752137,41.9734986239,-75.1743738656,2040102,2,2031.9093,"non-natural",9496,"EAST BRANCH DELAWARE RIVER AT FISHS EDDY NY","Delaware",243,1135.46,1194.58,1.05206700368133
"01423000",2613578,42.1661910333,-75.1403187464,2040101,2,864.8127,"natural",9496,"WEST BRANCH DELAWARE RIVER AT WALTON NY","Delaware",244,1109.11,1163.67,1.04919259586515
"01425000",2614238,42.0747839301,-75.3960291176,2040101,2,1187.2116,"non-natural",9496,"WEST BRANCH DELAWARE RIVER AT STILESVILLE NY","Delaware",245,1090.68,1163.02,1.06632559504163
"01426500",2614210,42.002738966,-75.3836624179,2040101,2,1547.7363,"non-natural",9496,"WEST BRANCH DELAWARE RIVER AT HALE EDDY NY","Delaware",246,1089.97,1166.44,1.07015789425397
"01427510",2617456,41.7573186769,-75.0563782237,2040101,2,4731.8463,"non-natural",9496,"DELAWARE RIVER AT CALLICOON NY","Wayne",247,1119.55,1196.97,1.06915278460096
"01428500",2615318,41.5082577222,-74.9861814896,2040101,2,5245.8255,"non-natural",9496,"DELAWARE R ABOVE LACKAWAXEN R NEAR BARRYVILLE NY","Sullivan",248,1135.38,1218.92,1.07357888988709
"01428750",2739748,41.6745215166,-75.3761174955,2040103,2,113.1102,"non-natural",9496,"West Branch Lackawaxen River near Aldenville, PA","Wayne",249,1127.28,1254.62,1.11296217443758
"01429000",2739772,41.5873065033,-75.3269190563,2040103,2,150.8364,"non-natural",9496,"West Branch Lackawaxen River at Prompton, PA","Wayne",250,1132.69,1252.17,1.10548340675737
"01429500",2739766,41.6072904978,-75.26700223,2040103,2,168.2892,"non-natural",9496,"Dyberry Creek near Honesdale, PA","Wayne",251,1135.25,1250.1,1.10116714380092
"01430000",2739776,41.5626238845,-75.2474461656,2040103,2,420.678,"non-natural",9496,"Lackawaxen River near Honesdale, PA","Wayne",252,1122.35,1261.81,1.12425713903862
"01431500",2743198,41.4761135889,-75.1721992532,2040103,2,746.1828,"non-natural",9496,"Lackawaxen River at Hawley, PA","Wayne",253,1121.05,1266.45,1.12969983497614
"01434000",4151524,41.3716357504,-74.6969416294,2040104,2,7971.336,"non-natural",9496,"DELAWARE RIVER AT PORT JERVIS NY","Pike",254,1132.17,1236.54,1.09218580248549
"01434017",4147394,41.9252266209,-74.5400978182,2040104,2,71.3394,"non-natural",9496,"EAST BRANCH NEVERSINK RIVER NEAR CLARYVILLE NY","Ulster",255,1355.43,1222.02,0.901573670348155
"01434025",4147946,41.9958876345,-74.5000749726,2040104,2,9.918,"natural",9496,"BISCUIT BK ABOVE PIGEON BK AT FROST VALLEY NY","Ulster",256,1336.39,1220.91,0.913588099282395
"01434498",4147396,41.920310017,-74.5746721151,2040104,2,89.2413,"non-natural",9496,"WEST BRANCH NEVERSINK RIVER AT CLARYVILLE NY","Sullivan",257,1306.38,1234,0.944594987675868
"01435000",4147956,41.8897692578,-74.5898542282,2040104,2,183.1761,"natural",9496,"NEVERSINK RIVER NEAR CLARYVILLE NY","Sullivan",258,1321.35,1235.13,0.934748552616642
"01436000",4147432,41.8204171653,-74.6350875799,2040104,2,255.789,"non-natural",9496,"NEVERSINK RIVER AT NEVERSINK NY","Sullivan",259,1292.03,1247.71,0.965697390927455
"01436690",4147634,41.6382178545,-74.618078973,2040104,2,444.8034,"non-natural",9496,"NEVERSINK RIVER AT BRIDGEVILLE NY","Sullivan",260,1270.37,1267.6,0.997819532891992
"01437500",4151216,41.4408431495,-74.6015702171,2040104,2,791.9388,"non-natural",9496,"NEVERSINK RIVER AT GODEFFROY NY","Orange",261,1265.08,1273.07,1.00631580611503
"01438500",4151628,41.309067755,-74.7952361205,2040104,2,9013.8951,"non-natural",9496,"Delaware River at Montague NJ","Pike",262,1143.34,1239.78,1.08434936239439
"01439500",4153168,41.0884809764,-75.0375047922,2040104,2,306.3933,"natural",9496,"Bush Kill at Shoemakers, PA","Monroe",263,1196.12,1325.84,1.1084506571247
"01440000",4151302,41.1059361548,-74.9524357869,2040104,2,170.766,"natural",9496,"Flat Brook near Flatbrookville NJ","Sussex",264,1187.36,1357.98,1.14369694111306
"01440400",4153166,41.0843714329,-75.214687048,2040104,2,179.1297,"natural",9496,"Brodhead Creek near Analomink, PA","Monroe",265,1249.4,1313.39,1.0512165839603
"01442500",4154488,40.9984871028,-75.1428886102,2040104,2,679.6278,"non-natural",9496,"Brodhead Creek at Minisink Hills, PA","Monroe",266,1249.01,1335.18,1.06899064058735
"01443280",2583309,41.0764070412,-74.6952230272,2040105,2,34.5717,"non-natural",9496,"East Branch Paulins Kill near Lafayette NJ","Sussex",267,1227.85,1376.28,1.12088610172252
"01443500",2586771,40.9810390977,-74.9532627566,2040105,2,329.5017,"non-natural",9496,"Paulins Kill at Blairstown NJ","Warren",268,1208,1368.92,1.1332119205298
"01443900",2587723,40.9808269387,-75.039599183,2040105,2,20.493,"non-natural",9496,"Yards Creek near Blairstown NJ","Warren",269,1248.8,1358.33,1.08770819987188
"01445500",2586809,40.8303254879,-74.9783158295,2040105,2,277.9515,"non-natural",9496,"Pequest River at Pequest NJ","Warren",270,1249.49,1377.83,1.10271390727417
"01446500",2588381,40.8261905614,-75.0836990729,2040105,2,11760.0759,"non-natural",9496,"Delaware River at Belvidere NJ","Warren",271,1176.32,1279.28,1.08752720348205
"01447500",4185679,41.1305195415,-75.6255856776,2040106,2,242.0937,"non-natural",9496,"Lehigh River at Stoddartsville, PA","Monroe",272,1238.3,1303.02,1.05226520229347
"01447680",4185837,41.0656553295,-75.5214076454,2040106,2,54.054,"non-natural",9496,"Tunkhannock Creek near Long Pond, PA","Monroe",273,1271.76,1335.27,1.04993866767315
"01447720",4185779,41.084853089,-75.6054118756,2040106,2,307.9872,"non-natural",9496,"Tobyhanna Creek near Blakeslee, PA","Carbon",274,1253.67,1316.55,1.05015673981191
"01447800",4186403,41.1045530695,-75.7317637262,2040106,2,750.7944,"non-natural",9496,"Lehigh R bl Francis E Walter Res nr White Haven PA","Luzerne",275,1226.94,1306.94,1.06520286240566
"01449000",4188159,40.8292278828,-75.7052197454,2040106,2,1525.2183,"non-natural",9496,"Lehigh River at Lehighton, PA","Carbon",276,1218.75,1307.95,1.07318974358974
"01449360",4187925,40.8976183034,-75.5023896207,2040106,2,133.3377,"non-natural",9496,"Pohopoco Creek at Kresgeville, PA","Monroe",277,1242.43,1342.36,1.08043109068519
"01449800",4187341,40.845285884,-75.6456029495,2040106,2,249.4791,"non-natural",9496,"Pohopoco Cr bl Beltzville Dam nr Parryville, PA","Carbon",278,1249.1,1338.47,1.07154751421023
"01450500",4187957,40.8059692055,-75.5978082944,2040106,2,202.8051,"non-natural",9496,"Aquashicola Creek at Palmerton, PA","Carbon",279,1219.82,1352.35,1.10864717745241
"01451000",4188205,40.7569761718,-75.6035788563,2040106,2,2297.439,"non-natural",9496,"Lehigh River at Walnutport, PA","Northampton",280,1227.59,1320.82,1.07594555185363
"01451500",4188011,40.582512524,-75.4831618949,2040106,2,213.2082,"non-natural",9496,"Little Lehigh Creek near Allentown, PA","Lehigh",281,1207.66,1373.07,1.13696735836245
"01451650",4187763,40.5966616617,-75.4741431358,2040106,2,255.0771,"non-natural",9496,"Little Lehigh Creek at Tenth St. Br. at Allentown","Lehigh",282,1207.66,1373.07,1.13696735836245
"01451800",4187713,40.6617278173,-75.626827824,2040106,2,149.1156,"natural",9496,"Jordan Creek near Schnecksville, PA","Lehigh",283,1220.41,1352.61,1.10832425168591
"01452000",4188007,40.6234392537,-75.482367598,2040106,2,213.2199,"non-natural",9496,"Jordan Creek at Allentown, PA","Lehigh",284,1216.94,1355.95,1.11422913208539
"01452500",4188017,40.6412172551,-75.3793295016,2040106,2,127.6074,"non-natural",9496,"Monocacy Creek at Bethlehem, PA","Northampton",285,1189.14,1371.16,1.15306860420136
"01453000",4188281,40.6153122859,-75.3787914431,2040106,2,3178.1043,"non-natural",9496,"Lehigh River at Bethlehem, PA","Lehigh",286,1225.71,1337.35,1.09108190354978
"01457000",2588261,40.6720638276,-75.0605525112,2040105,2,403.1775,"non-natural",9496,"Musconetcong River near Bloomsbury NJ","Warren",287,1257.17,1385.47,1.10205461472991
"01459500",2591219,40.4338465432,-75.1165266161,2040105,2,253.8909,"non-natural",9496,"Tohickon Creek near Pipersville, PA","Bucks",288,1206.65,1426.02,1.18180085360295
"01463500",2590277,40.220238094,-74.7788053491,2040105,2,17573.6097,"non-natural",9496,"Delaware River at Trenton NJ","Mercer",289,1176.88,1297.89,1.10282271769424
"01464000",2590137,40.2243134457,-74.7494410822,2040105,2,238.3119,"non-natural",9496,"Assunpink Creek at Trenton NJ","Mercer",290,1190,1448.61,1.21731932773109
"01464500",4481607,40.1371170801,-74.5999752034,2040201,2,211.4226,"non-natural",9496,"Crosswicks Creek at Extonville NJ","Mercer",291,1183.67,1501.75,1.26872354625867
"01464645",4482695,40.3127996275,-75.2069242732,2040201,2,42.8328,"non-natural",9496,"NB Neshaminy Cr bl Lake Galena nr New Britain, PA","Bucks",292,1217.26,1444.55,1.18672263937039
"01464720",4482733,40.2884642539,-75.2042412143,2040201,2,81.8451,"non-natural",9496,"NB Neshaminy Creek at Chalfont, PA","Bucks",293,1204.77,1455.42,1.20804800916357
"01466500",4492036,39.885003535,-74.5052799528,2040202,2,6.1506,"natural",9496,"McDonalds Branch in Byrne State Forest NJ","Burlington",294,1174.53,1561.34,1.32933173269308
"01467000",4491898,39.9700989164,-74.6843957574,2040202,2,307.6344,"non-natural",9496,"North Branch Rancocas Creek at Pemberton NJ","Burlington",295,1173.75,1547.44,1.31837273695421
"01467048",4489178,40.0497144045,-75.032305794,2040202,2,130.3506,"non-natural",9496,"Pennypack Cr at Lower Rhawn St Bdg, Phila., PA","Philadelphia",296,1196.62,1473.7,1.23155220537848
"01467081",4495672,39.9419119453,-75.000975876,2040202,2,23.7213,"non-natural",9496,"South Branch Pennsauken Creek at Cherry Hill NJ","Burlington",297,1165.76,1517.98,1.30213766126819
"01467087",4489096,40.0159055933,-75.0968439549,2040202,2,80.6427,"non-natural",9496,"Frankford Creek at Castor Ave, Philadelphia, PA","Philadelphia",298,1171.04,1482.21,1.26572106845197
"01467150",4494690,39.9028472132,-75.0215357644,2040202,2,44.7678,"non-natural",9496,"Cooper River at Haddonfield NJ","Camden",299,1165.76,1517.98,1.30213766126819
"01468500",4779607,40.628547988,-76.124520692,2040203,2,343.89,"non-natural",9496,"Schuylkill River at Landingville, PA","Schuylkill",300,1203.41,1372.86,1.14080820335546
"01469500",4778811,40.8069852189,-75.97217385,2040203,2,114.9921,"non-natural",9496,"Little Schuylkill River at Tamaqua, PA","Schuylkill",301,1248.2,1337,1.07114244512097
"01470500",4779167,40.5222028435,-75.9978107002,2040203,2,928.0476,"non-natural",9496,"Schuylkill River at Berne, PA","Berks",302,1209.1,1359.69,1.12454718385576
"01470779",4783101,40.4131793485,-76.1714241776,2040203,2,184.5387,"non-natural",9496,"Tulpehocken Creek near Bernville, PA","Berks",303,1116.01,1407.81,1.2614671911542
"01470960",4783213,40.3710263492,-76.0249156976,2040203,2,465.3981,"non-natural",9496,"Tulpehocken Cr at Blue Marsh Damsite near Reading","Berks",304,1139.36,1403.26,1.23162126105884
"01471000",4782017,40.3691013995,-75.9791889407,2040203,2,563.4252,"non-natural",9496,"Tulpehocken Creek near Reading, PA","Berks",305,1130.54,1405.68,1.24337042475277
"01471510",4782313,40.3350535319,-75.9371572254,2040203,2,2306.2437,"non-natural",9496,"Schuylkill River at Reading, PA","Berks",306,1189.22,1371.52,1.15329375557088
"01472000",4782441,40.2419874175,-75.6515384745,2040203,2,2987.8335,"non-natural",9496,"Schuylkill River at Pottstown, PA","Montgomery",307,1193.44,1381.59,1.15765350583188
"01472157",4782153,40.1516749525,-75.6014392345,2040203,2,157.9797,"non-natural",9496,"French Creek near Phoenixville, PA","Chester",308,1171.27,1439.96,1.22940056519846
"01472198",4780723,40.3939234653,-75.5154844617,2040203,2,97.8831,"non-natural",9496,"Perkiomen Creek at East Greenville, PA","Montgomery",309,1189.71,1398.26,1.17529481974599
"01472199",4780787,40.3740335295,-75.5224368269,2040203,2,60.6996,"non-natural",9496,"West Branch Perkiomen Creek at Hillegass, PA","Montgomery",310,1203.86,1399.16,1.16222816606582
"01472620",4782009,40.4040568828,-75.234374364,2040203,2,16.911,"non-natural",9496,"East Branch Perkiomen Creek near Dublin, PA","Bucks",311,1215.41,1445.96,1.18968907611423
"01472810",4781261,40.2592098947,-75.4291576938,2040203,2,153.4644,"non-natural",9496,"East Branch Perkiomen Creek near Schwenksville, PA","Montgomery",312,1182.86,1448.47,1.22454897451939
"01473000",4782107,40.2295646657,-75.4517971706,2040203,2,723.2418,"non-natural",9496,"Perkiomen Creek at Graterford, PA","Montgomery",313,1196.52,1418.61,1.18561327850767
"01473169",4781877,40.0792454358,-75.4608881524,2040203,2,54.5418,"non-natural",9496,"Valley Creek at PA Turnpike Br near Valley Forge","Chester",314,1178.08,1475.18,1.25219000407443
"01474000",4782187,40.015258436,-75.20653728,2040203,2,164.9835,"non-natural",9496,"Wissahickon Creek at Mouth, Philadelphia, PA","Philadelphia",315,1182.9,1468.63,1.2415504269169
"01474500",4784831,39.9686054657,-75.1882336103,2040203,2,4888.8459,"non-natural",9496,"Schuylkill River at Philadelphia, PA","Philadelphia",316,1189.46,1404.85,1.1810821717418
"01475850",4494460,39.9764623055,-75.4366467352,2040202,2,41.8662,"non-natural",9496,"Crum Creek near Newtown Square, PA","Delaware",317,1166.12,1477.41,1.26694508283882
"01477000",4495846,39.8689836707,-75.4082607771,2040202,2,171.9054,"non-natural",9496,"Chester Creek near Chester, PA","Delaware",318,1164.99,1491.09,1.27991656580743
"01477120",4495818,39.7405305799,-75.2591734521,2040202,2,67.698,"non-natural",9496,"Raccoon Creek near Swedesboro NJ","Gloucester",319,1122.32,1529.21,1.36254365956234
"01477800",4651906,39.760964194,-75.5186824635,2040205,2,22.0644,"non-natural",9496,"SHELLPOT CREEK AT WILMINGTON, DE","New Castle",320,1137.5,1530.34,1.34535384615385
"01478000",4651956,39.6371472718,-75.7281903929,2040205,2,63.2925,"non-natural",9496,"CHRISTINA RIVER AT COOCHS BRIDGE, DE","New Castle",321,1134.01,1539.62,1.35767762189046
"01479000",4651938,39.698934876,-75.6750359742,2040205,2,234.7785,"non-natural",9496,"WHITE CLAY CREEK NEAR NEWARK, DE","New Castle",322,1152.65,1525.21,1.32322040515334
"01479820",4651090,39.8169817499,-75.6913281572,2040205,2,77.0319,"non-natural",9496,"Red Clay Creek near Kennett Square, PA","Chester",323,1165.23,1524.8,1.30858285488702
"01480000",4651912,39.7627993409,-75.6365083154,2040205,2,125.1684,"non-natural",9496,"RED CLAY CREEK AT WOODDALE, DE","New Castle",324,1164.14,1523.46,1.30865703437731
"01480015",4651930,39.7157714599,-75.6398002788,2040205,2,136.0809,"non-natural",9496,"RED CLAY CREEK NEAR STANTON, DE","New Castle",325,1164.14,1523.46,1.30865703437731
"01480300",4648694,40.0723677234,-75.8610738693,2040205,2,49.8726,"non-natural",9496,"West Branch Brandywine Creek near Honey Brook, PA","Chester",326,1138.16,1443.15,1.26796759682294
"01480500",932040162,39.9856483386,-75.8275388682,2040205,2,123.7761,"non-natural",9496,"West Branch Brandywine Creek at Coatesville, PA","Chester",327,1138.55,1460.18,1.28249088753239
"01480617",4650580,39.9617083734,-75.8013439288,2040205,2,143.2746,"non-natural",9496,"West Branch Brandywine Creek at Modena, PA","Chester",328,1138.55,1460.18,1.28249088753239
"01480675",4648686,40.0979633576,-75.7415804222,2040205,2,22.4946,"non-natural",9496,"Marsh Creek near Glenmoore, PA","Chester",329,1186.62,1448.33,1.22055080817785
"01480685",4648728,40.0557345224,-75.7176969842,2040205,2,52.0812,"non-natural",9496,"Marsh Creek near Downingtown, PA","Chester",330,1195.92,1446.29,1.20935346845943
"01480700",4648568,40.0348250044,-75.7085622405,2040205,2,157.7952,"non-natural",9496,"East Branch Brandywine Creek near Downingtown, PA","Chester",331,1179.28,1461.73,1.23951054880944
"01480870",4650548,39.9685841636,-75.6734048047,2040205,2,232.6617,"non-natural",9496,"East Branch Brandywine Creek below Downingtown, PA","Chester",332,1179.28,1461.73,1.23951054880944
"01481000",4652046,39.8696552313,-75.5934966913,2040205,2,746.2791,"non-natural",9496,"Brandywine Creek at Chadds Ford, PA","Delaware",333,1159.13,1478.07,1.27515464184345
"01481500",4655440,39.7692871739,-75.5767418573,2040205,2,824.9895,"non-natural",9496,"BRANDYWINE CREEK AT WILMINGTON, DE","New Castle",334,1146.16,1484.42,1.29512458993509
"01483200",4653422,39.3663263508,-75.6694402633,2040205,2,11.4426,"non-natural",9496,"BLACKBIRD CREEK AT BLACKBIRD, DE","New Castle",335,1102.04,1291.95,1.17232586838953
"01483700",8074660,39.1636517862,-75.5192595268,2040207,2,85.8978,"non-natural",9496,"ST JONES RIVER AT DOVER, DE","Kent",336,1125.21,1309.71,1.16396939238009
"01484100",8077030,38.905790987,-75.512760295,2040207,2,7.3836,"natural",9496,"BEAVERDAM BRANCH AT HOUSTON, DE","Kent",337,1123.51,1361.26,1.21161360379525
"01484525",8407597,38.5945889029,-75.2910381373,2040303,2,161.6238,"non-natural",9496,"MILLSBORO POND OUTLET AT MILLSBORO, DE","Sussex",338,1122.66,1340.62,1.1941460459979
"01485500",8401785,38.2288685828,-75.4712983636,2080111,2,117.9333,"natural",9496,"NASSAWANGO CREEK NEAR SNOW HILL, MD","Worcester",339,1138.86,1419.73,1.24662381679926
"01486000",8401391,38.2137254502,-75.6713255034,2080110,2,15.6069,"natural",9496,"MANOKIN BRANCH NEAR PRINCESS ANNE, MD","Somerset",340,1127.89,1465.74,1.29954162196668
"01487000",8392898,38.7283517884,-75.5620431236,2080109,2,190.3932,"natural",9496,"NANTICOKE RIVER NEAR BRIDGEVILLE, DE","Sussex",341,1124.38,1506.41,1.33976947295398
"01491000",9407484,38.9972013271,-75.7853717807,2060005,2,300.6801,"natural",9496,"CHOPTANK RIVER NEAR GREENSBORO, MD","Caroline",342,1119.98,1520.01,1.35717602100037
"01495000",4763116,39.6674877207,-75.8259063873,2060002,2,134.6328,"non-natural",9496,"BIG ELK CREEK AT ELK MILLS, MD","Cecil",343,1132.92,1525.28,1.34632630724146
"01503000",8088149,42.0357422774,-75.8024720637,2050101,2,5795.5482,"non-natural",9496,"SUSQUEHANNA RIVER AT CONKLIN NY","Broome",344,1073.08,1150.27,1.07193312707347
"01509000",9422095,42.6026602601,-76.1586794197,2050102,2,770.0157,"non-natural",9496,"TIOUGHNIOGA RIVER AT CORTLAND NY","Cortland",345,1052.23,1148.88,1.09185254174468
"01510000",9420683,42.5412044199,-75.8988775965,2050102,2,380.7459,"natural",9496,"OTSELIC RIVER AT CINCINNATUS NY","Cortland",346,1083.99,1136.66,1.0485890091237
"01512500",9423965,42.2180843268,-75.84864655,2050102,2,3854.4129,"non-natural",9496,"CHENANGO RIVER NEAR CHENANGO FORKS NY","Broome",347,1048.79,1140.49,1.08743409071406
"01516350",8112301,41.7970059948,-77.0798668411,2050104,2,399.177,"non-natural",9496,"Tioga River near Mansfield, PA","Tioga",348,912.562,1267.37,1.38880426754566
"01518000",8112611,41.9085251956,-77.1291507611,2050104,2,726.2838,"non-natural",9496,"Tioga River at Tioga, PA","Tioga",349,909.062,1261.25,1.38741911992801
"01518700",8111755,41.9525479902,-77.1152968326,2050104,2,1149.8715,"non-natural",9496,"Tioga River at Tioga Junction, PA","Tioga",350,913.342,1256.38,1.37558548714501
"01518862",8111873,41.9227352683,-77.5318559901,2050104,2,234.18,"natural",9496,"Cowanesque River at Westfield, PA","Tioga",351,962.679,1223.39,1.27081820627644
"01520000",8111577,41.9961006055,-77.1399103736,2050104,2,776.1636,"non-natural",9496,"Cowanesque River near Lawrenceville, PA","Tioga",352,917.236,1223.31,1.33369165623678
"01521500",8110879,42.3956773919,-77.7114737987,2050104,2,84.2643,"non-natural",9496,"CANISTEO RIVER AT ARKPORT NY","Steuben",353,939.835,1186.77,1.26274292827996
"01523500",8110889,42.3348893721,-77.6825337778,2050104,2,153.2637,"non-natural",9496,"CANACADEA CREEK NEAR HORNELL NY","Steuben",354,944.243,1189.03,1.25924152998751
"01524500",8110525,42.3136577202,-77.6509889927,2050104,2,410.3244,"non-natural",9496,"CANISTEO RIVER BELOW CANACADEA CREEK AT HORNELL NY","Steuben",355,921.944,1190.06,1.2908159280824
"01526500",8110941,42.1211488424,-77.1293044092,2050104,2,3568.8249,"non-natural",9496,"TIOGA RIVER NEAR ERWINS NY","Steuben",356,912.978,1229.9,1.34712994179487
"01529500",8119183,42.2523723346,-77.2168685446,2050105,2,1219.0104,"non-natural",9496,"COHOCTON RIVER NEAR CAMPBELL NY","Steuben",357,870.717,1217.43,1.39819252409221
"01529950",8119227,42.1474208756,-77.0573470093,2050105,2,5194.9233,"non-natural",9496,"CHEMUNG RIVER AT CORNING NY","Steuben",358,903.585,1227.97,1.35899776999397
"01531000",8118503,42.0025381653,-76.6345450886,2050105,2,6496.8327,"non-natural",9496,"CHEMUNG RIVER AT CHEMUNG NY","Chemung",359,906.429,1226.6,1.35322237042283
"01531500",4199356,41.7655250958,-76.4404853539,2050106,2,20162.7954,"non-natural",9496,"Susquehanna River at Towanda, PA","Bradford",360,996.147,1184.09,1.18866994529924
"01532000",4199144,41.7068432313,-76.4848028763,2050106,2,558.315,"natural",9496,"Towanda Creek near Monroeton, PA","Bradford",361,965.935,1261.39,1.30587461889258
"01533400",4199592,41.6079545683,-76.0487889559,2050106,2,22608.0099,"non-natural",9496,"Susquehanna River at Meshoppen, PA","Wyoming",362,996.479,1186,1.1901906613185
"01534000",4196160,41.558391645,-75.894834906,2050106,2,1023.1983,"non-natural",9496,"Tunkhannock Creek near Tunkhannock, PA","Wyoming",363,1069.21,1238.76,1.1585750226803
"01534300",2598631,41.6798061523,-75.4718257433,2050107,2,102.8655,"non-natural",9496,"Lackawanna River near Forest City, PA","Susquehanna",364,1143.33,1222.21,1.06899145478558
"01534500",2598765,41.5045758612,-75.5420405525,2050107,2,284.1534,"non-natural",9496,"Lackawanna River at Archbald, PA","Lackawanna",365,1085.68,1249.91,1.15126925060791
"01536000",2600273,41.3588427713,-75.7447053505,2050107,2,866.5839,"non-natural",9496,"Lackawanna River at Old Forge, PA","Lackawanna",366,1112.19,1259.72,1.13264819859916
"01536500",2601199,41.2522328377,-75.88188019,2050107,2,25814.2284,"non-natural",9496,"Susquehanna River at Wilkes-Barre, PA","Luzerne",367,1008.86,1195.84,1.1853379061515
"01538000",2603031,41.0594217883,-76.0934682907,2050107,2,108.4851,"non-natural",9496,"Wapwallopen Creek near Wapwallopen, PA","Luzerne",368,1154.16,1294.73,1.12179420530949
"01539000",2603023,41.078155734,-76.4312583017,2050107,2,704.1537,"natural",9496,"Fishing Creek near Bloomsburg, PA","Columbia",369,1117.56,1264.51,1.1314918214682
"01540500",2604993,40.9570890811,-76.6200037177,2050107,2,29061.783,"non-natural",9496,"Susquehanna River at Danville, PA","Montour",370,1062.19,1296.73,1.22080795337934
"01541000",4673267,40.897125051,-78.6772279187,2050201,2,816.2856,"non-natural",9496,"West Branch Susquehanna River at Bower, PA","Clearfield",371,1105.08,1288.19,1.16569841097477
"01541200",4674941,40.9610596893,-78.5190287136,2050201,2,952.9713,"non-natural",9496,"WB Susquehanna River near Curwensville, PA","Clearfield",372,1099.35,1279.57,1.16393323327421
"01541303",4672573,41.0048366687,-78.4570182649,2050201,2,1242.6336,"non-natural",9496,"West Branch Susquehanna River at Hyde, PA","Clearfield",373,1097.68,1274.26,1.16086655491582
"01541500",4674911,40.9720632382,-78.4063899329,2050201,2,965.0448,"non-natural",9496,"Clearfield Creek at Dimeling, PA","Clearfield",374,1064.56,1295.23,1.21668107011347
"01542810",8125917,41.5790606635,-78.2926644121,2050202,2,13.6368,"natural",9496,"Waldy Run near Emporium, PA","Cameron",375,1062.83,1219.04,1.14697552760084
"01543000",8127529,41.4133038304,-78.1968191915,2050202,2,704.9169,"natural",9496,"Driftwood Br Sinnemahoning Cr at Sterling Run, PA","Cameron",376,1067.16,1238.18,1.16025713107688
"01543500",8127609,41.3165604242,-78.1031369197,2050202,2,1779.9255,"natural",9496,"Sinnemahoning Creek at Sinnemahoning, PA","Cameron",377,1067.46,1244.12,1.16549566260094
"01544000",8126619,41.4016299641,-78.0241818818,2050202,2,637.6905,"non-natural",9496,"First Fork Sinnemahoning Cr near Sinnemahoning, PA","Cameron",378,1053.06,1223.17,1.16153875372723
"01544500",8134650,41.4758481233,-77.8256412557,2050203,2,363.0384,"natural",9496,"Kettle Creek at Cross Fork, PA","Clinton",379,1037.51,1232.8,1.18822951104086
"01545000",8134992,41.3195616824,-77.8737124782,2050203,2,610.0893,"non-natural",9496,"Kettle Creek near Westport, PA","Clinton",380,1044.61,1241.68,1.18865413886522
"01545500",8135528,41.324022469,-77.7500892757,2050203,2,7709.3892,"non-natural",9496,"West Branch Susquehanna River at Renovo, PA","Clinton",381,1056.09,1261.2,1.19421640201119
"01545600",8134878,41.3897799768,-77.6910345401,2050203,2,124.3422,"natural",9496,"Young Womans Creek near Renovo, PA","Clinton",382,1045.17,1258.13,1.20375632672197
"01546400",8140280,40.8337076035,-77.8275213893,2050204,2,153.1827,"non-natural",9496,"Spring Creek at Houserville, PA","Centre",383,1029.36,1311.81,1.27439379808813
"01546500",8140406,40.8897525494,-77.7941788071,2050204,2,218.0952,"non-natural",9496,"Spring Creek near Axemann, PA","Centre",384,1026.6,1312.92,1.27890122735243
"01547100",8140404,40.9315564044,-77.7857717391,2050204,2,378.0018,"non-natural",9496,"Spring Creek at Milesburg, PA","Centre",385,1015.75,1303.87,1.28365247354172
"01547200",8140016,40.9434352856,-77.786499165,2050204,2,696.3993,"non-natural",9496,"Bald Eagle Creek bl Spring Creek at Milesburg, PA","Centre",386,1026.56,1303.16,1.26944357855362
"01547500",8139444,41.0514880407,-77.6042500111,2050204,2,877.5207,"non-natural",9496,"Bald Eagle Creek at Blanchard, PA","Centre",387,1019.17,1301.23,1.27675461404869
"01547700",8139414,41.0596571645,-77.6057539707,2050204,2,115.5402,"natural",9496,"Marsh Creek at Blanchard, PA","Centre",388,1008.67,1272.06,1.26112603725698
"01547950",8139224,41.1116721758,-77.7022727053,2050204,2,397.4337,"non-natural",9496,"Beech Creek at Monument, PA","Centre",389,1019.7,1264.96,1.24052172207512
"01548500",8144622,41.5216454408,-77.447783047,2050205,2,1557.8865,"natural",9496,"Pine Creek at Cedar Run, PA","Lycoming",390,973.319,1242.16,1.2762105743338
"01549500",8144818,41.4735979956,-77.2307875065,2050205,2,98.7768,"natural",9496,"Blockhouse Creek near English Center, PA","Lycoming",391,942.651,1268.01,1.34515319031115
"01549700",8145248,41.2738262188,-77.3242147785,2050205,2,2460.357,"non-natural",9496,"Pine Creek bl L Pine Creek near Waterville, PA","Lycoming",392,996.701,1251.01,1.25515074229884
"01550000",8152817,41.4181798204,-77.0327461404,2050206,2,453.9195,"natural",9496,"Lycoming Creek near Trout Run, PA","Lycoming",393,1009.22,1272.28,1.26065674481283
"01551500",8152471,41.2372338709,-76.9974133671,2050206,2,14702.5566,"non-natural",9496,"WB Susquehanna River at Williamsport, PA","Lycoming",394,1086.52,1270.27,1.16911791775577
"01552000",8152257,41.3252421628,-76.9118889542,2050206,2,1130.8662,"natural",9496,"Loyalsock Creek at Loyalsockville, PA","Lycoming",395,1060.74,1264.92,1.1924882629108
"01552500",8151091,41.356406042,-76.5346775683,2050206,2,62.0415,"natural",9496,"Muncy Creek near Sonestown, PA","Sullivan",396,1148.98,1259.9,1.09653779874323
"01553500",8153799,40.9671992766,-76.8782886976,2050206,2,17676.288,"non-natural",9496,"West Branch Susquehanna River at Lewisburg, PA","Northumberland",397,1048.69,1268.33,1.20944225652957
"01554000",932050014,40.8327012307,-76.8254832477,2050301,2,47746.0944,"non-natural",9496,"Susquehanna River at Sunbury, PA","Snyder",398,1032.51,1227.59,1.18893763740787
"01555000",4520418,40.8667321111,-77.048319776,2050301,2,792.8001,"non-natural",9496,"Penns Creek at Penns Creek, PA","Snyder",399,1081.45,1313.52,1.21459152064358
"01555500",4518306,40.6111267882,-76.9119185507,2050301,2,426.4065,"non-natural",9496,"East Mahantango Creek near Dalmatia, PA","Northumberland",400,1129.3,1340.2,1.18675285575135
"01556000",4684242,40.4629947267,-78.1998273442,2050302,2,754.7058,"non-natural",9496,"Frankstown Br Juniata River at Williamsburg, PA","Blair",401,1000.86,1343.82,1.34266530783526
"01557500",4683152,40.6837649882,-78.2336491085,2050302,2,118.0566,"natural",9496,"Bald Eagle Creek at Tyrone, PA","Blair",402,1036.04,1311.7,1.26607080807691
"01558000",4682638,40.6128379452,-78.1405148835,2050302,2,579.2175,"non-natural",9496,"Little Juniata River at Spruce Creek, PA","Huntingdon",403,1030.26,1319.52,1.28076407897036
"01559000",4684346,40.4852238762,-78.0185556488,2050302,2,2121.0048,"non-natural",9496,"Juniata River at Huntingdon, PA","Huntingdon",404,1007,1341.65,1.33232373386296
"01560000",4690113,40.0712529893,-78.492500179,2050303,2,447.0849,"non-natural",9496,"Dunning Creek at Belden, PA","Bedford",405,987.021,1367.22,1.38519849121751
"01562000",4690429,40.2158888256,-78.2651957149,2050303,2,1954.665,"non-natural",9496,"Raystown Branch Juniata River at Saxton, PA","Bedford",406,978.762,1387.91,1.41802603697324
"01563200",4688455,40.4284581831,-77.9911863428,2050303,2,2486.9502,"non-natural",9496,"Rays Br Juniata R bl Rays Dam nr Huntingdon, PA","Huntingdon",407,976.252,1382.55,1.41618147773321
"01564500",4699877,40.212606734,-77.9252183406,2050304,2,445.9203,"natural",9496,"Aughwick Creek near Three Springs, PA","Huntingdon",408,1005.78,1404.96,1.39688599892621
"01567000",4699925,40.4791387245,-77.1283337103,2050304,2,8681.31,"non-natural",9496,"Juniata River at Newport, PA","Perry",409,1018.6,1363.83,1.33892597683094
"01567500",4710396,40.3709993607,-77.4021992301,2050305,2,39.5064,"natural",9496,"Bixler Run near Loysville, PA","Perry",410,1066.65,1387.3,1.30061407209488
"01568000",4710668,40.3229878192,-77.1687500292,2050305,2,536.9949,"natural",9496,"Sherman Creek at Shermans Dale, PA","Perry",411,1052.73,1396.97,1.32699742574069
"01570000",4712048,40.2519833415,-77.0208948787,2050305,2,1211.0094,"non-natural",9496,"Conodoguinet Creek near Hogestown, PA","Cumberland",412,1054.36,1420.6,1.34735763875716
"01570500",4710000,40.2507047446,-76.8874821237,2050305,2,62361.1179,"non-natural",9496,"Susquehanna River at Harrisburg, PA","Dauphin",413,1033.24,1257.97,1.21750029034881
"01571500",4709484,40.2245160196,-76.8979480602,2050305,2,556.5447,"non-natural",9496,"Yellow Breeches Creek near Camp Hill, PA","Cumberland",414,1071.99,1426.25,1.33046950064833
"01572025",4707802,40.5322754867,-76.4019557883,2050305,2,303.6933,"non-natural",9496,"Swatara Creek near Pine Grove, PA","Schuylkill",415,1183.2,1380.38,1.16664976335362
"01572190",4708462,40.4794480574,-76.530664803,2050305,2,437.1543,"non-natural",9496,"Swatara Creek near Inwood, PA","Lebanon",416,1186.25,1368.3,1.15346680716544
"01573000",4708726,40.4025553544,-76.5771426052,2050305,2,870.1623,"non-natural",9496,"Swatara Creek at Harper Tavern, PA","Lebanon",417,1162.87,1386.74,1.19251507047219
"01573560",4709260,40.2986668041,-76.6681605248,2050305,2,1249.8786,"non-natural",9496,"Swatara Creek near Hershey, PA","Dauphin",418,1129.43,1392.62,1.2330290500518
"01574000",4722109,40.0818112045,-76.7201727914,2050306,2,1327.0527,"non-natural",9496,"West Conewago Creek near Manchester, PA","York",419,1071.56,1438.37,1.3423140094815
"01574500",4726129,39.8788099589,-76.8533344457,2050306,2,197.6859,"non-natural",9496,"Codorus Creek at Spring Grove, PA","York",420,1060.81,1459.28,1.37562805780488
"01576000",4722221,40.0524140215,-76.5313729493,2050306,2,66993.2757,"non-natural",9496,"Susquehanna River at Marietta, PA","Lancaster",421,1064.39,1416.03,1.33036762840688
"01576500",4722137,40.0501242998,-76.2776216125,2050306,2,858.0204,"non-natural",9496,"Conestoga River at Lancaster, PA","Lancaster",422,1095.57,1434.43,1.30930018164061
"01576754",4724553,39.9464835983,-76.3681228575,2050306,2,1212.1074,"non-natural",9496,"Conestoga River at Conestoga, PA","Lancaster",423,1091.04,1430.49,1.3111251649802
"01578310",4726593,39.6599283329,-76.1738518048,2050306,2,70160.6844,"non-natural",9496,"SUSQUEHANNA RIVER AT CONOWINGO, MD","Harford",424,1039.38,1282.25,1.23366814831919
"01580000",4726301,39.6298672108,-76.403299468,2050306,2,246.8709,"natural",9496,"DEER CREEK AT ROCKS, MD","Harford",425,1135.23,1511.15,1.33113994520934
"01581700",11687474,39.5200332781,-76.372942713,2060003,2,90.2943,"non-natural",9496,"WINTERS RUN NEAR BENSON, MD","Harford",426,1173.21,1528,1.30240962828479
"01582000",11687636,39.6039773013,-76.6205613319,2060003,2,139.779,"non-natural",9496,"LITTLE FALLS AT BLUE MOUNT, MD","Baltimore",427,1116.09,1500.32,1.34426435144119
"01582500",11687360,39.5497055393,-76.6360996419,2060003,2,415.278,"non-natural",9496,"GUNPOWDER FALLS AT GLENCOE, MD","Baltimore",428,1109.33,1499.54,1.35175285983431
"01583500",11687656,39.5108558194,-76.6765339066,2060003,2,163.7019,"natural",9496,"WESTERN RUN AT WESTERN RUN, MD","Baltimore",429,1127.71,1521.03,1.34877761126531
"01583600",11688368,39.4854440625,-76.6456397913,2060003,2,54.3789,"non-natural",9496,"BEAVERDAM RUN AT COCKEYSVILLE, MD","Baltimore",430,1143.48,1528.35,1.33657781509078
"01584050",11688586,39.4545212226,-76.4791705582,2060003,2,25.7418,"non-natural",9496,"LONG GREEN CREEK AT GLEN ARM, MD","Baltimore",431,1183.67,1530.57,1.29307154865799
"01585100",11689686,39.3707503375,-76.4457919428,2060003,2,19.9188,"non-natural",9496,"WHITEMARSH RUN AT WHITE MARSH, MD","Baltimore",432,1174.91,1491.52,1.26947595986076
"01585500",11687638,39.5932980432,-76.9674943536,2060003,2,9.3249,"non-natural",9496,"CRANBERRY BRANCH NEAR WESTMINSTER, MD","Carroll",433,1070.49,1496.7,1.39814477482274
"01586000",11687548,39.5035059817,-76.8850999931,2060003,2,145.6047,"non-natural",9496,"NORTH BRANCH PATAPSCO RIVER AT CEDARHURST, MD","Carroll",434,1086.14,1510.46,1.39066786970372
"01586210",11688350,39.4894524403,-76.903050606,2060003,2,37.7667,"non-natural",9496,"BEAVER RUN NEAR FINKSBURG, MD","Carroll",435,1086.01,1525.34,1.40453586983545
"01586610",11688538,39.4519628195,-76.9552957055,2060003,2,72.7992,"natural",9496,"MORGAN RUN NEAR LOUISVILLE, MD","Carroll",436,1068.93,1525.49,1.42711870749254
"01589500",11689424,39.1696805801,-76.6308596826,2060003,2,12.9618,"non-natural",9496,"SAWMILL CREEK AT GLEN BURNIE, MD","Anne Arundel",437,1078.6,1204.06,1.11631744854441
"01591000",11907296,39.2385799555,-77.0558044886,2060006,2,91.1052,"non-natural",9496,"PATUXENT RIVER NEAR UNITY, MD","Montgomery",438,1076.66,1551.11,1.4406683632716
"01591400",11907272,39.2560834814,-77.050962011,2060006,2,59.5026,"natural",9496,"CATTAIL CREEK NEAR GLENWOOD, MD","Howard",439,1082.94,1550.37,1.43163056124993
"01591610",11907330,39.1921426055,-77.0045256009,2060006,2,207.3069,"non-natural",9496,"PATUXENT RIVER BELOW BRIGHTON DAM NEAR BRIGHTON,MD","Montgomery",440,1078.75,1554.36,1.4408899188876
"01591700",11907336,39.1745006149,-77.0213979302,2060006,2,72.5211,"non-natural",9496,"HAWLINGS RIVER NEAR SANDY SPRING, MD","Montgomery",441,1074.41,1567.3,1.45875410690519
"01592500",11905746,39.1157551433,-76.8737230232,2060006,2,344.4453,"non-natural",9496,"PATUXENT RIV NEAR LAUREL, MD","Prince George's",442,1079.4,1554.8,1.44042986844543
"01593500",11905718,39.1678280982,-76.8512062836,2060006,2,102.4083,"non-natural",9496,"LITTLE PATUXENT RIVER AT GUILFORD, MD","Howard",443,1088.07,1548.64,1.42329078092402
"01594000",11905730,39.1342787323,-76.8162205007,2060006,2,255.6747,"non-natural",9496,"LITTLE PATUXENT RIVER AT SAVAGE, MD","Howard",444,1084.51,1559.39,1.43787516943136
"01594440",11907758,38.9558922082,-76.6938370153,2060006,2,906.921,"non-natural",9496,"PATUXENT RIVER NEAR BOWIE, MD","Anne Arundel",445,1085.86,1414.18,1.30235942018308
"01594526",11908364,38.8141844456,-76.7487252656,2060006,2,238.6152,"non-natural",9496,"WESTERN BRANCH AT UPPER MARLBORO, MD","Prince George's",446,1085.42,1349.86,1.24362919422896
"01594950",14365490,39.2766048462,-79.3902939897,2070002,2,6.12,"natural",9496,"MCMILLAN F NEAR FORT PENDLETON, MD","Garrett",447,1251.52,1387.11,1.10834025824597
"01595000",14365432,39.3014949246,-79.3071009607,2070002,2,190.8558,"non-natural",9496,"NORTH BRANCH POTOMAC RIVER AT STEYER, MD","Garrett",448,1276.39,1365.56,1.06986109261276
"01596500",14364088,39.5702004536,-79.1018789589,2070002,2,127.0566,"natural",9496,"SAVAGE RIVER NEAR BARTON, MD","Garrett",449,1042.29,1352.84,1.29794970689539
"01597500",14364042,39.502918614,-79.1238876691,2070002,2,276.4656,"non-natural",9496,"SAVAGE RIV BL SAVAGE RIV DAM NEAR BLOOMINGTON, MD","Garrett",450,1086.62,1356.45,1.24832048002061
"01598500",14364980,39.4786873232,-79.0642151026,2070002,2,1047.1851,"non-natural",9496,"NORTH BRANCH POTOMAC RIVER AT LUKE, MD","Allegany",451,1163.46,1375.16,1.18195726539804
"01599000",14364970,39.4939578222,-79.044627486,2070002,2,191.9826,"non-natural",9496,"GEORGES CREEK AT FRANKLIN, MD","Allegany",452,1011.09,1390.07,1.37482321059451
"01601500",14363456,39.6699289114,-78.7878937033,2070002,2,654.8598,"non-natural",9496,"WILLS CREEK NEAR CUMBERLAND, MD","Allegany",453,977.837,1373.49,1.4046206065019
"01603000",14363552,39.6217594758,-78.7734231099,2070002,2,2268.2619,"non-natural",9496,"NORTH BRANCH POTOMAC RIVER NEAR CUMBERLAND, MD","Allegany",454,1070.81,1384.71,1.2931425743129
"01604500",14364372,39.4437559051,-78.8218591868,2070002,2,575.0109,"non-natural",9496,"PATTERSON CREEK NEAR HEADSVILLE, WV","Mineral",455,990.275,1440.31,1.45445457070006
"01605500",8423458,38.6354961614,-79.3372676487,2070001,2,474.5997,"natural",9496,"SOUTH BRANCH POTOMAC RIVER AT FRANKLIN, WV","Pendleton",456,1036.17,1427.88,1.37803642259475
"01606500",8423278,38.9915275108,-79.1761161754,2070001,2,1686.2328,"natural",9496,"SOUTH BRANCH POTOMAC RIVER NEAR PETERSBURG, WV","Grant",457,1043.42,1437.72,1.37789193229955
"01607500",8423460,38.6308742453,-79.2436491151,2070001,2,267.4197,"non-natural",9496,"S F SOUTH BRANCH POTOMAC RIVER AT BRANDYWINE, WV","Pendleton",458,991.694,1465.66,1.47793573420833
"01608000",8420098,39.0128746331,-78.9566959944,2070001,2,717.0831,"non-natural",9496,"S F SOUTH BRANCH POTOMAC RIVER NR MOOREFIELD, WV","Hardy",459,965.096,1472.37,1.52562024917728
"01608500",8420360,39.447261216,-78.6540254917,2070001,2,3793.6683,"non-natural",9496,"SOUTH BRANCH POTOMAC RIVER NEAR SPRINGFIELD, WV","Hampshire",460,1005.33,1452.97,1.44526672833796
"01610000",8431820,39.5385604882,-78.456388677,2070003,2,8060.7555,"non-natural",9496,"POTOMAC RIVER AT PAW PAW, WV","Allegany",461,1004.68,1439.69,1.4329836365808
"01613000",5893338,39.6970766783,-78.1779034005,2070004,2,10550.7675,"non-natural",9496,"POTOMAC RIVER AT HANCOCK, MD","Washington",462,994.192,1451.13,1.45960739977791
"01613050",5892356,39.8984006508,-78.1322855109,2070004,2,28.0998,"natural",9496,"Tonoloway Creek near Needmore, PA","Fulton",463,997.718,1438.48,1.4417701194125
"01613900",5895822,39.2147037831,-78.2884350337,2070004,2,42.7347,"non-natural",9496,"HOGUE CREEK NEAR HAYFIELD, VA","Frederick",464,963.429,1528.04,1.58604318533073
"01614500",5891232,39.7159123022,-77.8249436202,2070004,2,1300.2606,"non-natural",9496,"CONOCOCHEAGUE CREEK AT FAIRVIEW, MD","Washington",465,1055.26,1443.84,1.36823152587988
"01616500",5894384,39.4237276393,-77.9380079602,2070004,2,705.1383,"non-natural",9496,"OPEQUON CREEK NEAR MARTINSBURG, WV","Berkeley",466,993.642,1520.85,1.53058143677502
"01617800",5891846,39.514730543,-77.7774235506,2070004,2,54.5013,"non-natural",9496,"MARSH RUN AT GRIMES, MD","Washington",467,999.897,1481.85,1.48200264627257
"01620500",5909157,38.3349932646,-79.2391897921,2070005,2,61.1649,"natural",9496,"NORTH RIVER NEAR STOKESVILLE, VA","Augusta",468,1027.83,1476.91,1.43692050241772
"01622000",5908733,38.3406948534,-78.9133152637,2070005,2,976.2246,"non-natural",9496,"NORTH RIVER NEAR BURKETOWN, VA","Rockingham",469,987.788,1511.73,1.53041948272301
"01625000",5908355,38.2617944207,-78.8620324793,2070005,2,1036.3005,"non-natural",9496,"MIDDLE RIVER NEAR GROTTOES, VA","Augusta",470,1047.78,1562.65,1.49139132260589
"01626000",5908521,38.057554088,-78.9081520933,2070005,2,329.0022,"non-natural",9496,"SOUTH RIVER NEAR WAYNESBORO, VA","Waynesboro",471,1133.49,1617.36,1.42688510705873
"01627500",5908375,38.2187586577,-78.8363733758,2070005,2,559.0827,"non-natural",9496,"SOUTH RIVER AT HARRISTON, VA","Augusta",472,1122.55,1614.37,1.43812747761792
"01629500",5907167,38.6458214174,-78.535006404,2070005,2,3564.9,"non-natural",9496,"S F SHENANDOAH RIVER NEAR LURAY, VA","Page",473,1048.42,1570.58,1.49804467675168
"01631000",5907079,38.9142279804,-78.2105582187,2070005,2,4238.2035,"non-natural",9496,"S F SHENANDOAH RIVER AT FRONT ROYAL, VA","Warren",474,1066.07,1584.93,1.48670349977018
"01632000",8441037,38.6373754111,-78.8528278668,2070006,2,546.7482,"natural",9496,"N F SHENANDOAH RIVER AT COOTES STORE, VA","Rockingham",475,937.655,1489.05,1.58805744116973
"01632900",8441303,38.6934322005,-78.6429234221,2070006,2,245.9511,"natural",9496,"SMITH CREEK NEAR NEW MARKET, VA","Shenandoah",476,942.041,1578.49,1.67560647572664
"01633000",8441291,38.7456647675,-78.6388809294,2070006,2,1384.0488,"non-natural",9496,"N F SHENANDOAH RIVER AT MOUNT JACKSON, VA","Shenandoah",477,957.61,1529.35,1.59704890299809
"01634000",8441253,38.9765589828,-78.3363089176,2070006,2,2000.3715,"non-natural",9496,"N F SHENANDOAH RIVER NEAR STRASBURG, VA","Warren",478,954.179,1521.61,1.59467982422585
"01634500",8440459,39.0811599902,-78.3294685888,2070006,2,264.8646,"natural",9496,"CEDAR CREEK NEAR WINCHESTER, VA","Frederick",479,974.51,1532.41,1.57249284255677
"01635500",8441257,38.9581491906,-78.2665844679,2070006,2,227.2734,"non-natural",9496,"PASSAGE CREEK NEAR BUCKTON, VA","Warren",480,980.501,1573.15,1.60443487564011
"01636500",8445070,39.2821807787,-77.788606229,2070007,2,7875.3888,"non-natural",9496,"SHENANDOAH RIVER AT MILLVILLE, WV","Jefferson",481,1041.66,1567.12,1.5044448284469
"01637500",4505256,39.4272332689,-77.5561362171,2070008,2,175.5585,"non-natural",9496,"CATOCTIN CREEK NEAR MIDDLETOWN, MD","Frederick",482,1081.1,1478.23,1.36733882157062
"01638480",4505612,39.2549633652,-77.5761803803,2070008,2,233.6877,"natural",9496,"CATOCTIN CREEK AT TAYLORSTOWN, VA","Loudoun",483,1073.81,1539.09,1.43329825574357
"01638500",4507348,39.2724398938,-77.5441214989,2070008,2,24994.602,"non-natural",9496,"POTOMAC RIVER AT POINT OF ROCKS, MD","Frederick",484,1030.48,1490.55,1.44646184302461
"01639000",8448416,39.67900143,-77.2346559044,2070009,2,450.0603,"non-natural",9496,"MONOCACY RIVER AT BRIDGEPORT, MD","Frederick",485,1115.61,1451.86,1.30140461272308
"01639500",8449082,39.612453418,-77.2373935509,2070009,2,267.408,"natural",9496,"BIG PIPE CREEK AT BRUCEVILLE, MD","Carroll",486,1090.31,1472.04,1.35011143619704
"01643000",8450266,39.402836773,-77.3659770926,2070009,2,2114.8533,"non-natural",9496,"MONOCACY RIVER AT JUG BRIDGE NEAR FREDERICK, MD","Frederick",487,1101.71,1488.49,1.35107242377758
"01643500",8450600,39.2940461674,-77.4071852913,2070009,2,163.1844,"non-natural",9496,"BENNETT CREEK AT PARK MILLS, MD","Frederick",488,1087.58,1545.95,1.4214586513176
"01644000",4507266,39.0186230105,-77.5779760759,2070008,2,859.4199,"natural",9496,"GOOSE CREEK NEAR LEESBURG, VA","Loudoun",489,1072.32,1587.09,1.48005259623993
"01645000",4506374,39.1281088336,-77.3355581558,2070008,2,268.7283,"non-natural",9496,"SENECA CREEK AT DAWSONVILLE, MD","Montgomery",490,1078.38,1562.46,1.44889556557058
"01646000",4509202,38.9756755266,-77.2457684449,2070008,2,150.8202,"non-natural",9496,"DIFFICULT RUN NEAR GREAT FALLS, VA","Fairfax",491,1064.9,1586.29,1.48961404826744
"01646500",4512772,38.9489194387,-77.130124743,2070008,2,29947.1013,"non-natural",9496,"POTOMAC RIVER NEAR WASH, DC LITTLE FALLS PUMP STA","Montgomery",492,1038.06,1496.51,1.44164113827717
"01648000",22338431,38.9725239294,-77.0400911788,2070010,2,171.4914,"non-natural",9496,"ROCK CREEK AT SHERRILL DRIVE WASHINGTON, DC","District of Columbia",493,1074.25,1575.61,1.46670700488713
"01649500",22337975,38.9601570502,-76.9258292253,2070010,2,194.3361,"non-natural",9496,"NORTHEAST BRANCH ANACOSTIA RIVER AT RIVERDALE, MD","Prince George's",494,1077.55,1567.65,1.45482808222356
"01651000",22337977,38.9526577208,-76.9660020354,2070010,2,135.4743,"non-natural",9496,"NORTHWEST BR ANACOSTIA RIVER NR HYATTSVILLE, MD","Prince George's",495,1073.73,1578.26,1.46988535292858
"01651800",22337781,38.901059473,-76.942220391,2070010,2,9.738,"non-natural",9496,"WATTS BRANCH AT WASHINGTON, DC","District of Columbia",496,1077.83,1457.61,1.35235612295074
"01653000",22340339,38.8065477891,-77.109650296,2070010,2,88.8543,"non-natural",9496,"CAMERON RUN AT ALEXANDRIA, VA","Alexandria",497,1083.49,1599.85,1.4765710804899
"01654000",22340331,38.8128918668,-77.2283168429,2070010,2,62.2764,"non-natural",9496,"ACCOTINK CREEK NEAR ANNANDALE, VA","Fairfax",498,1072.33,1595.45,1.48783490156948
"01656000",22339947,38.6372155537,-77.6252944187,2070010,2,243.7263,"non-natural",9496,"CEDAR RUN NEAR CATLETT, VA","Fauquier",499,1072.61,1613.75,1.50450769618035
"01658500",4529107,38.5869492381,-77.4285244755,2070011,2,23.6736,"natural",9496,"S F QUANTICO CREEK NEAR INDEPENDENT HILL, VA","Prince William",500,1046.19,1631.75,1.55970712776838
"01664000",8465429,38.5302389185,-77.8137114297,2080103,2,1604.7072,"natural",9496,"RAPPAHANNOCK RIVER AT REMINGTON, VA","Fauquier",501,1112.3,1622.71,1.45887800053942
"01666500",8468559,38.3246560307,-78.094750718,2080103,2,468.4887,"natural",9496,"ROBINSON RIVER NEAR LOCUST DALE, VA","Madison",502,1166.13,1642.59,1.40858223354171
"01667500",8467225,38.350517747,-77.9748627999,2080103,2,1211.8833,"natural",9496,"RAPIDAN RIVER NEAR CULPEPER, VA","Culpeper",503,1137.01,1643.2,1.44519397366778
"01668000",8476948,38.3095484397,-77.5290285494,2080104,2,4134.5622,"non-natural",9496,"RAPPAHANNOCK RIVER NEAR FREDERICKSBURG, VA","Spotsylvania",504,1106.2,1636.68,1.47955161815223
"01669000",8479268,37.877387431,-76.9005322661,2080104,2,76.0932,"natural",9496,"PISCATAWAY CREEK NEAR TAPPAHANNOCK, VA","Essex",505,1121.43,1681.59,1.49950509617185
"01669520",8457352,37.6339050749,-76.6961961247,2080102,2,283.527,"natural",9496,"DRAGON SWAMP AT MASCOT, VA","King and Queen",506,1121.89,1698.32,1.51380260096801
"01671020",8505740,37.8501916636,-77.4276697245,2080106,2,1196.8155,"non-natural",9496,"NORTH ANNA RIVER AT HART CORNER NEAR DOSWELL, VA","Hanover",507,1094.2,1679.57,1.53497532443795
"01673000",8506380,37.7676448097,-77.3322022402,2080106,2,2793.7836,"non-natural",9496,"PAMUNKEY RIVER NEAR HANOVER, VA","Hanover",508,1095.91,1681.41,1.5342592001168
"01673550",8506844,37.6627016782,-77.2577894581,2080106,2,66.5037,"non-natural",9496,"TOTOPOTOMOY CREEK NEAR STUDLEY, VA","Hanover",509,1109.1,1710.24,1.54200703272924
"01673800",8489364,38.1710474611,-77.5946504531,2080105,2,201.4695,"non-natural",9496,"PO RIVER NEAR SPOTSYLVANIA, VA","Spotsylvania",510,1081.68,1665.76,1.53997485393092
"01674000",8489912,38.0614741549,-77.3859433108,2080105,2,669.7044,"non-natural",9496,"MATTAPONI RIVER NEAR BOWLING GREEN, VA","Caroline",511,1080.51,1676.11,1.5512211825897
"01674500",8494082,37.8842632703,-77.1647442984,2080105,2,1560.7935,"non-natural",9496,"MATTAPONI RIVER NEAR BEULAHVILLE, VA","King William",512,1091.71,1686.59,1.54490661439393
"02011400",8520617,38.0423765162,-79.8818496344,2080201,2,410.2083,"natural",9496,"JACKSON RIVER NEAR BACOVA, VA","Bath",513,1067.08,1459.96,1.36818232934738
"02011460",8520739,38.245082188,-79.7685031213,2080201,2,235.7433,"natural",9496,"BACK CREEK NEAR SUNRISE, VA","Bath",514,1084.26,1420.41,1.31002711526756
"02011470",8520739,38.1905802397,-79.8120327486,2080201,2,235.7433,"non-natural",9496,"BACK CREEK AT SUNRISE, VA","Bath",515,1084.26,1420.41,1.31002711526756
"02011500",8520755,38.0691548742,-79.8975383198,2080201,2,347.6853,"non-natural",9496,"BACK CREEK NEAR MOUNTAIN GROVE, VA","Bath",516,1087.7,1417.55,1.30325457387147
"02011800",8521381,37.9488383396,-79.9491197627,2080201,2,894.2481,"non-natural",9496,"JACKSON RIVER BL GATHRIGHT DAM NR HOT SPGS, VA","Alleghany",517,1064.72,1449.92,1.36178525809603
"02013000",8525587,37.8024676797,-80.0478683102,2080201,2,425.9475,"natural",9496,"DUNLAP CREEK NEAR COVINGTON, VA","Alleghany",518,990.181,1523.32,1.53842580295926
"02013100",8524321,37.7886535905,-80.0007815547,2080201,2,1584.5067,"non-natural",9496,"JACKSON RIVER BL DUNLAP CREEK AT COVINGTON, VA","Covington",519,1057.59,1465.74,1.38592460216152
"02014000",8525619,37.7287195259,-80.0423853173,2080201,2,397.2384,"natural",9496,"POTTS CREEK NEAR COVINGTON, VA","Alleghany",520,1010.36,1533.41,1.51768676511342
"02015700",8520749,38.1953849262,-79.5706680331,2080201,2,286.1397,"natural",9496,"BULLPASTURE RIVER AT WILLIAMSVILLE, VA","Bath",521,1029.16,1448.6,1.40755567647402
"02016000",8523325,37.7920807405,-79.7592061437,2080201,2,1195.0146,"natural",9496,"COWPASTURE RIVER NEAR CLIFTON FORGE, VA","Alleghany",522,1072.75,1497.82,1.39624329993009
"02016500",8523633,37.7730162898,-79.784140312,2080201,2,3551.6259,"non-natural",9496,"JAMES RIVER AT LICK RUN, VA","Botetourt",523,1051.37,1478.38,1.40614626630016
"02017500",8525659,37.5064443601,-80.1065518892,2080201,2,271.8207,"natural",9496,"JOHNS CREEK AT NEW CASTLE, VA","Craig",524,1039.12,1518.19,1.46103433674648
"02018000",8522521,37.6657544162,-79.9118777846,2080201,2,851.7942,"natural",9496,"CRAIG CREEK AT PARR, VA","Botetourt",525,1041.37,1542.72,1.48143311215034
"02018500",8526515,37.468172277,-80.0055508631,2080201,2,89.6751,"non-natural",9496,"CATAWBA CREEK NEAR CATAWBA, VA","Botetourt",526,1054.29,1561.95,1.48151836781151
"02019500",8523653,37.5301839747,-79.6789269317,2080201,2,5368.2696,"non-natural",9496,"JAMES RIVER AT BUCHANAN, VA","Botetourt",527,1056.1,1501.24,1.42149417668781
"02021500",8540027,37.9071720543,-79.4221105505,2080202,2,854.3772,"non-natural",9496,"MAURY RIVER AT ROCKBRIDGE BATHS, VA","Rockbridge",528,1081.66,1510.17,1.3961596065307
"02022500",8540051,37.8265002896,-79.4426877639,2080202,2,92.2779,"non-natural",9496,"KERRS CREEK NEAR LEXINGTON, VA","Rockbridge",529,1104.74,1538.48,1.39261726741134
"02026000",8547851,37.5361028359,-78.8294310918,2080203,2,9448.6095,"non-natural",9496,"JAMES RIVER AT BENT CREEK, VA","Nelson",530,1082.94,1550.37,1.43163056124993
"02027000",8547581,37.7154195662,-78.9816902798,2080203,2,241.1298,"natural",9496,"TYE RIVER NEAR LOVINGSTON, VA","Nelson",531,1191.98,1643.96,1.37918421450024
"02027500",8549853,37.7025255074,-79.0275005639,2080203,2,127.7415,"natural",9496,"PINEY RIVER AT PINEY RIVER, VA","Nelson",532,1187.47,1639.7,1.38083488424971
"02028500",8547459,37.8695650205,-78.8233258544,2080203,2,246.2904,"natural",9496,"ROCKFISH RIVER NEAR GREENFIELD, VA","Nelson",533,1180.41,1649.9,1.39773468540592
"02029000",8548103,37.7965688523,-78.4914417338,2080203,2,11863.5003,"non-natural",9496,"JAMES RIVER AT SCOTTSVILLE, VA","Albemarle",534,1089.46,1567.55,1.43883208194886
"02031000",8566737,38.1026361787,-78.593007975,2080204,2,257.0301,"non-natural",9496,"MECHUMS RIVER NEAR WHITE HALL, VA","Albemarle",535,1162.5,1637.99,1.40902365591398
"02034000",8568309,37.857551836,-78.2664217782,2080204,2,1718.0685,"non-natural",9496,"RIVANNA RIVER AT PALMYRA, VA","Fluvanna",536,1127.53,1639.42,1.4539923549706
"02035000",8575903,37.670147289,-78.0862724026,2080205,2,16195.0401,"non-natural",9496,"JAMES RIVER AT CARTERSVILLE, VA","Goochland",537,1093.46,1590.48,1.45453880343131
"02036500",8573687,37.5979499317,-77.8197428815,2080205,2,58.482,"non-natural",9496,"FINE CREEK AT FINE CREEK MILLS, VA","Powhatan",538,1098.26,1709.9,1.55691730555606
"02037000",8573705,37.5644340622,-77.5741963657,2080205,2,6.9003,"non-natural",9496,"JAMES RIVER AND KANAWHA CANAL NEAR RICHMOND, VA","Henrico",539,1110.12,1722.69,1.55180521024754
"02037500",8574021,37.5609728787,-77.5467525788,2080205,2,17490.825,"non-natural",9496,"JAMES RIVER NEAR RICHMOND, VA","Henrico",540,1096.81,1602.68,1.46121935430932
"02038850",8611825,37.4155865516,-78.6360002054,2080207,2,23.9157,"natural",9496,"HOLIDAY CREEK NEAR ANDERSONVILLE, VA","Appomattox",541,1100.51,1703.56,1.5479732124197
"02039000",8611935,37.2570952021,-78.4861293354,2080207,2,181.0125,"non-natural",9496,"BUFFALO CREEK NEAR HAMPDEN SYDNEY, VA","Prince Edward",542,1092.46,1721.35,1.57566409754133
"02039500",8611887,37.3071637402,-78.3885998425,2080207,2,782.6139,"non-natural",9496,"APPOMATTOX RIVER AT FARMVILLE, VA","Cumberland",543,1096.29,1714.47,1.56388364392633
"02040000",8606911,37.4217268752,-77.8585473229,2080207,2,1878.1965,"non-natural",9496,"APPOMATTOX RIVER AT MATTOAX, VA","Amelia",544,1098.69,1711.12,1.55741838007081
"02041000",8607681,37.282944322,-77.8695873656,2080207,2,410.4846,"non-natural",9496,"DEEP CREEK NEAR MANNBORO, VA","Amelia",545,1117.43,1731.76,1.54977045542003
"02041650",8608039,37.2250811242,-77.4752562461,2080207,2,3475.6569,"non-natural",9496,"APPOMATTOX RIVER AT MATOACA, VA","Chesterfield",546,1107.22,1715.85,1.54969202145915
"02042500",10067073,37.4361897727,-77.0609473539,2080206,2,650.1285,"non-natural",9496,"CHICKAHOMINY RIVER NEAR PROVIDENCE FORGE, VA","New Kent",547,1108.09,1715.68,1.54832188721133
"02044500",8725649,36.9836757267,-77.7997489824,3010201,3,820.9836,"non-natural",9496,"NOTTOWAY RIVER NEAR RAWLINGS, VA","Brunswick",548,1130.22,1729.74,1.53044540001062
"02046000",8719481,37.0670915254,-77.6025340495,3010201,3,292.959,"natural",9496,"STONY CREEK NEAR DINWIDDIE, VA","Dinwiddie",549,1139.17,1728.45,1.51728890332435
"02047000",8725915,36.7704461931,-77.1654541629,3010201,3,3734.676,"non-natural",9496,"NOTTOWAY RIVER NEAR SEBRELL, VA","Southampton",550,1139.44,1711.29,1.50186933932458
"02047500",11582436,37.024984672,-76.8749472363,3010202,3,755.586,"non-natural",9496,"BLACKWATER RIVER NEAR DENDRON, VA","Surry",551,1138.53,1711.46,1.50321906317796
"02049500",11585318,36.7622616701,-76.8980853604,3010202,3,1588.725,"non-natural",9496,"BLACKWATER RIVER NEAR FRANKLIN, VA","Southampton",552,1150.64,1709.99,1.48612076757283
"02051000",8744593,36.9978644636,-78.3496196495,3010204,3,145.0791,"natural",9496,"NORTH MEHERRIN RIVER NEAR LUNENBURG, VA","Lunenburg",553,1096.32,1724.45,1.57294403093987
"02052000",8742283,36.6897918445,-77.5406601145,3010204,3,1930.0428,"non-natural",9496,"MEHERRIN RIVER AT EMPORIA, VA","Emporia",554,1124.31,1714.24,1.52470404070052
"02053200",8746117,36.3709504769,-77.0259615909,3010204,3,585.8262,"natural",9496,"POTECASI CREEK NEAR UNION, NC","Hertford",555,1159.56,1683.15,1.45154196419331
"02053500",10462511,36.2801544107,-76.9997257666,3010203,3,156.2175,"non-natural",9496,"AHOSKIE CREEK AT AHOSKIE, NC","Hertford",556,1169.2,1685.19,1.44131885049607
"02053800",8629303,37.1414229752,-80.2651474958,3010101,3,287.8398,"natural",9496,"S F ROANOKE RIVER NEAR SHAWSVILLE, VA","Montgomery",557,1047.04,1550.53,1.48086988080685
"02054500",8629291,37.2370875212,-80.2090925846,3010101,3,658.7712,"non-natural",9496,"ROANOKE RIVER AT LAFAYETTE, VA","Montgomery",558,1042.73,1527.27,1.46468405052123
"02054530",8628333,37.2678865194,-80.1392147743,3010101,3,728.4456,"non-natural",9496,"ROANOKE RIVER AT GLENVAR, VA","Roanoke",559,1042.95,1530.11,1.46709813509756
"02055000",8627261,37.2587460617,-79.9389213864,3010101,3,997.0704,"non-natural",9496,"ROANOKE RIVER AT ROANOKE, VA","Roanoke",560,1044.87,1550.9,1.48429948223224
"02056000",8627467,37.2545857794,-79.8714629907,3010101,3,1327.4937,"non-natural",9496,"ROANOKE RIVER AT NIAGARA, VA","Roanoke",561,1073.74,1566.32,1.45875165310038
"02056650",8625313,37.2276628063,-79.868047598,3010101,3,145.1529,"non-natural",9496,"BACK CREEK NEAR DUNDEE, VA","Roanoke",562,1083.93,1581.88,1.45939313424299
"02056900",8626863,37.0451859837,-79.8441264969,3010101,3,299.502,"natural",9496,"BLACKWATER RIVER NEAR ROCKY MOUNT, VA","Franklin",563,1118.5,1589.95,1.42150201162271
"02058400",8632147,36.9462761111,-79.5241339102,3010101,3,910.0359,"non-natural",9496,"PIGG RIVER NEAR SANDY LEVEL, VA","Pittsylvania",564,1143.83,1609.96,1.40751685128035
"02059500",8627301,37.1729676256,-79.5204997946,3010101,3,487.1493,"natural",9496,"GOOSE CREEK NEAR HUDDLESTON, VA","Bedford",565,1127.08,1613.04,1.43116726408063
"02061500",8627291,37.2085300089,-79.3035995207,3010101,3,815.1615,"non-natural",9496,"BIG OTTER RIVER NEAR EVINGTON, VA","Campbell",566,1150.86,1634.27,1.42004240307248
"02062500",8648984,37.0385419559,-78.9460143619,3010102,3,6226.3629,"non-natural",9496,"ROANOKE (STAUNTON) RIVER AT BROOKNEAL, VA","Campbell",567,1110.68,1603.16,1.44340404076782
"02065500",8648830,37.0793065671,-78.7634826063,3010102,3,252.6858,"natural",9496,"CUB CREEK AT PHENIX, VA","Charlotte",568,1105.75,1681.38,1.52057879267466
"02068500",8675313,36.51490601,-80.3033815191,3010103,3,321.2856,"non-natural",9496,"DAN RIVER NEAR FRANCISCO, NC","Stokes",569,1229.96,1553.62,1.26314676900062
"02069700",8675163,36.5711738017,-80.1294621241,3010103,3,229.1508,"natural",9496,"SOUTH MAYO RIVER NEAR NETTLERIDGE, VA","Patrick",570,1247.43,1574.47,1.26217102362457
"02070000",8673051,36.5674287486,-79.9862661949,3010103,3,279.5301,"natural",9496,"NORTH MAYO RIVER NEAR SPENCER, VA","Henry",571,1209.09,1594.89,1.31908294667891
"02071000",8677803,36.412368951,-79.8265980701,3010103,3,2710.1556,"non-natural",9496,"DAN RIVER NEAR WENTWORTH, NC","Rockingham",572,1178.39,1606.29,1.36312256553433
"02072000",8674429,36.7807367249,-80.0241484422,3010103,3,555.4863,"non-natural",9496,"SMITH RIVER NEAR PHILPOTT, VA","Franklin",573,1188.15,1564.14,1.31644994318899
"02072500",8674473,36.7703834489,-80.0008870882,3010103,3,673.8606,"non-natural",9496,"SMITH RIVER AT BASSETT, VA","Henry",574,1189.41,1561.58,1.312903035959
"02073000",8673523,36.6615228627,-79.8803631168,3010103,3,983.0268,"non-natural",9496,"SMITH RIVER AT MARTINSVILLE, VA","Henry",575,1217.72,1584.01,1.3007998554676
"02074000",8673565,36.5253528348,-79.7656422481,3010103,3,1408.4928,"non-natural",9496,"SMITH RIVER AT EDEN, NC","Rockingham",576,1197.64,1595.33,1.33206138739521
"02074500",8673535,36.6200886076,-79.5039375083,3010103,3,289.0638,"natural",9496,"SANDY RIVER NEAR DANVILLE, VA","Pittsylvania",577,1136.93,1629.92,1.43361508624102
"02075500",8696811,36.6425401368,-79.0899088604,3010104,3,6700.8357,"non-natural",9496,"DAN RIVER AT PACES, VA","Halifax",578,1153.27,1626.79,1.41058902078438
"02077200",8701361,36.3980790349,-79.1971546264,3010104,3,125.4807,"natural",9496,"HYCO CREEK NEAR LEASBURG, NC","Caswell",579,1119.66,1710.24,1.52746369433578
"02081500",8760623,36.194581348,-78.5827717086,3020101,3,432.5598,"natural",9496,"TAR RIVER NEAR TAR RIVER, NC","Granville",580,1148.77,1731.19,1.50699443752884
"02081747",8759765,36.0928664222,-78.2963961175,3020101,3,1127.6226,"non-natural",9496,"TAR R AT US 401 AT LOUISBURG, NC","Franklin",581,1149.04,1731.9,1.50725823295969
"02082950",10511316,36.1837593446,-77.8768492998,3020102,3,461.6748,"natural",9496,"LITTLE FISHING CREEK NEAR WHITE OAK, NC","Halifax",582,1150.98,1713.57,1.48879215972476
"02085000",8780571,36.0712421154,-79.0955783612,3020201,3,175.1571,"non-natural",9496,"ENO RIVER AT HILLSBOROUGH, NC","Orange",583,1134.75,1737.52,1.53119189248733
"02087324",8783667,35.8111113911,-78.6115529524,3020201,3,315.6705,"non-natural",9496,"CRABTREE CREEK AT US 1 AT RALEIGH, NC","Wake",584,1126.81,1741.62,1.54561993592531
"0208732885",8783643,35.8169444658,-78.5931175664,3020201,3,19.8828,"non-natural",9496,"MARSH CREEK NEAR NEW HOPE, NC","Wake",585,1105.25,1741.86,1.57598733318254
"02087500",8786017,35.6472344002,-78.4056594582,3020201,3,2988.2376,"non-natural",9496,"NEUSE RIVER NEAR CLAYTON, NC","Johnston",586,1138.96,1736.09,1.52427653297745
